$GPGGA,161122.00,0322.826773,N,07623.930976,W,1,10,0.8,986.88,M,8.74,M,,*42
$GPVTG,355.9,T,,,000.07,N,000.13,K,A*4F
$GPGSA,A,3,02,05,06,12,13,17,19,20,25,15,,,2.0,0.8,1.9*3F
$GPRMC,161122,V,0322.826773,N,07623.930976,W,000.07,355.9,030398,1.2,W,N*35
$GPGGA,161123.00,0322.826758,N,07623.930983,W,1,10,0.8,986.90,M,8.74,M,,*49
$GPVTG,55.6,T,,,000.02,N,000.03,K,A*77
$GPGSA,A,3,02,05,06,12,13,17,19,20,25,15,,,2.0,0.8,1.9*3F
$GPRMC,161123,V,0322.826758,N,07623.930983,W,000.02,55.6,030398,1.2,W,N*0E
$GPGGA,161124.00,0322.826735,N,07623.930994,W,1,10,0.8,986.95,M,8.74,M,,*46
$GPVTG,77.1,T,,,000.02,N,000.04,K,A*77
$GPGSA,A,3,02,05,06,12,13,17,19,20,25,15,,,2.1,0.8,1.9*3E
$GPRMC,161124,V,0322.826735,N,07623.930994,W,000.02,77.1,030398,1.2,W,N*03
$GPGGA,161125.00,0322.826722,N,07623.931000,W,1,10,0.8,986.97,M,8.74,M,,*46
$GPVTG,25.3,T,,,000.03,N,000.06,K,A*71
$GPGSA,A,3,02,05,06,12,13,17,19,20,25,15,,,2.1,0.8,1.9*3E
$GPRMC,161125,V,0322.826722,N,07623.931000,W,000.03,25.3,030398,1.2,W,N*05
$GPGGA,161126.00,0322.826698,N,07623.931012,W,1,10,0.8,987.00,M,8.74,M,,*49
$GPVTG,16.3,T,,,000.05,N,000.09,K,A*78
$GPGSA,A,3,02,05,06,12,13,17,19,20,25,15,,,2.1,0.8,1.9*3E
$GPRMC,161126,V,0322.826698,N,07623.931012,W,000.05,16.3,030398,1.2,W,N*03
$GPGGA,161127.00,0322.826688,N,07623.931017,W,1,10,0.8,987.01,M,8.74,M,,*4D
$GPVTG,39.5,T,,,000.04,N,000.08,K,A*73
$GPGSA,A,3,02,05,06,12,13,17,19,20,25,15,,,2.1,0.8,1.9*3E
$GPRMC,161127,V,0322.826688,N,07623.931017,W,000.04,39.5,030398,1.2,W,N*0C
$GPGGA,161128.00,0322.826669,N,07623.931027,W,1,10,0.8,987.02,M,8.74,M,,*4D
$GPVTG,45.6,T,,,000.04,N,000.08,K,A*7B
$GPGSA,A,3,02,05,06,12,13,17,19,20,25,15,,,2.1,0.8,1.9*3E
$GPRMC,161128,V,0322.826669,N,07623.931027,W,000.04,45.6,030398,1.2,W,N*07
$GPGGA,161129.00,0322.826658,N,07623.931033,W,1,10,0.8,987.03,M,8.74,M,,*4A
$GPVTG,67.2,T,,,000.00,N,000.01,K,A*72
$GPGSA,A,3,02,05,06,12,13,17,19,20,25,15,,,2.1,0.8,1.9*3E
$GPRMC,161129,V,0322.826658,N,07623.931033,W,000.00,67.2,030398,1.2,W,N*01
$GPGGA,161130.00,0322.826644,N,07623.931038,W,1,10,0.8,987.03,M,8.74,M,,*44
$GPVTG,199.5,T,,,000.03,N,000.06,K,A*41
$GPGSA,A,3,02,05,06,12,13,17,19,20,25,15,,,2.1,0.8,1.9*3E
$GPRMC,161130,V,0322.826644,N,07623.931038,W,000.03,199.5,030398,1.2,W,N*3B
$GPGGA,161131.00,0322.826636,N,07623.931041,W,1,10,0.8,987.04,M,8.74,M,,*49
$GPVTG,227.3,T,,,000.10,N,000.18,K,A*4C
$GPGSA,A,3,02,05,06,12,13,17,19,20,25,15,,,2.1,0.8,1.9*3E
$GPRMC,161131,V,0322.826636,N,07623.931041,W,000.10,227.3,030398,1.2,W,N*33
$GPGGA,161132.00,0322.826632,N,07623.931044,W,1,10,0.8,987.04,M,8.74,M,,*4B
$GPVTG,325.5,T,,,000.08,N,000.14,K,A*4C
$GPGSA,A,3,02,05,06,12,13,17,19,20,25,15,,,2.1,0.8,1.9*3E
$GPRMC,161132,V,0322.826632,N,07623.931044,W,000.08,325.5,030398,1.2,W,N*3D
$GPGGA,161133.00,0322.826628,N,07623.931047,W,1,10,0.8,987.04,M,8.74,M,,*42
$GPVTG,154.7,T,,,000.07,N,000.14,K,A*45
$GPGSA,A,3,02,05,06,12,13,17,19,20,25,15,,,2.1,0.8,1.9*3E
$GPRMC,161133,V,0322.826628,N,07623.931047,W,000.07,154.7,030398,1.2,W,N*3D
$GPGGA,161134.00,0322.826623,N,07623.931050,W,1,10,0.8,987.05,M,8.74,M,,*49
$GPVTG,272.5,T,,,000.02,N,000.03,K,A*43
$GPGSA,A,3,02,05,06,12,13,17,19,20,25,15,,,2.1,0.8,1.9*3E
$GPRMC,161134,V,0322.826623,N,07623.931050,W,000.02,272.5,030398,1.2,W,N*37
$GPGGA,161135.00,0322.826618,N,07623.931053,W,1,10,0.8,987.06,M,8.74,M,,*40
$GPVTG,207.2,T,,,000.01,N,000.02,K,A*44
$GPGSA,A,3,02,05,06,12,13,17,19,20,25,15,,,2.1,0.8,1.9*3E
$GPRMC,161135,V,0322.826618,N,07623.931053,W,000.01,207.2,030398,1.2,W,N*3B
$GPGGA,161136.00,0322.826615,N,07623.931055,W,1,10,0.8,987.06,M,8.74,M,,*48
$GPVTG,17.3,T,,,000.13,N,000.23,K,A*76
$GPGSA,A,3,02,05,06,12,13,17,19,20,25,15,,,2.1,0.8,1.9*3E
$GPRMC,161136,V,0322.826615,N,07623.931055,W,000.13,17.3,030398,1.2,W,N*02
$GPGGA,161137.00,0322.826608,N,07623.931060,W,1,10,0.8,987.09,M,8.74,M,,*4C
$GPVTG,180.5,T,,,000.04,N,000.07,K,A*4F
$GPGSA,A,3,02,05,06,12,13,17,19,20,25,15,,,2.1,0.8,1.9*3E
$GPRMC,161137,V,0322.826608,N,07623.931060,W,000.04,180.5,030398,1.2,W,N*36
$GPGGA,161138.00,0322.826605,N,07623.931064,W,1,10,0.8,987.09,M,8.74,M,,*4A
$GPVTG,38.3,T,,,000.04,N,000.07,K,A*7B
$GPGSA,A,3,02,05,06,12,13,17,19,20,25,15,,,2.1,0.8,1.9*3E
$GPRMC,161138,V,0322.826605,N,07623.931064,W,000.04,38.3,030398,1.2,W,N*04
$GPGGA,161139.00,0322.826599,N,07623.931070,W,1,10,0.8,987.10,M,8.74,M,,*40
$GPVTG,49.4,T,,,000.03,N,000.06,K,A*7C
$GPGSA,A,3,02,05,06,12,13,17,19,20,25,15,,,2.1,0.8,1.9*3E
$GPRMC,161139,V,0322.826599,N,07623.931070,W,000.03,49.4,030398,1.2,W,N*00
$GPGGA,161140.00,0322.826592,N,07623.931075,W,1,10,0.8,987.09,M,8.74,M,,*48
$GPVTG,209.6,T,,,000.04,N,000.08,K,A*41
$GPGSA,A,3,02,05,06,12,13,17,19,20,25,15,,,2.1,0.8,1.9*3E
$GPRMC,161140,V,0322.826592,N,07623.931075,W,000.04,209.6,030398,1.2,W,N*33
$GPGGA,161141.00,0322.826581,N,07623.931081,W,1,10,0.8,987.10,M,8.74,M,,*48
$GPVTG,21.5,T,,,000.04,N,000.07,K,A*75
$GPGSA,A,3,02,05,06,12,13,17,19,20,25,15,,,2.1,0.8,1.9*3E
$GPRMC,161141,V,0322.826581,N,07623.931081,W,000.04,21.5,030398,1.2,W,N*00
$GPGGA,161142.00,0322.826571,N,07623.931086,W,1,10,0.8,987.11,M,8.74,M,,*42
$GPVTG,26.7,T,,,000.04,N,000.07,K,A*70
$GPGSA,A,3,02,05,06,12,13,17,19,20,25,15,,,2.1,0.8,1.9*3E
$GPRMC,161142,V,0322.826571,N,07623.931086,W,000.04,26.7,030398,1.2,W,N*0E
$GPGGA,161143.00,0322.826552,N,07623.931092,W,1,10,0.8,987.13,M,8.74,M,,*45
$GPVTG,116.5,T,,,000.03,N,000.05,K,A*45
$GPGSA,A,3,02,05,06,12,13,17,19,20,25,15,,,2.1,0.8,1.9*3E
$GPRMC,161143,V,0322.826552,N,07623.931092,W,000.03,116.5,030398,1.2,W,N*3C
$GPGGA,161144.00,0322.826544,N,07623.931097,W,1,10,0.8,987.14,M,8.74,M,,*47
$GPVTG,79.6,T,,,000.05,N,000.09,K,A*74
$GPGSA,A,3,02,05,06,12,13,17,19,20,25,15,,,2.1,0.8,1.9*3E
$GPRMC,161144,V,0322.826544,N,07623.931097,W,000.05,79.6,030398,1.2,W,N*04
$GPGGA,161145.00,0322.826527,N,07623.931106,W,1,10,0.8,987.16,M,8.74,M,,*48
$GPVTG,237.6,T,,,000.02,N,000.04,K,A*46
$GPGSA,A,3,02,05,06,12,13,17,19,20,25,15,,,2.1,0.8,1.9*3E
$GPRMC,161145,V,0322.826527,N,07623.931106,W,000.02,237.6,030398,1.2,W,N*36
$GPGGA,161146.00,0322.826522,N,07623.931108,W,1,10,0.8,987.17,M,8.74,M,,*41
$GPVTG,227.9,T,,,000.03,N,000.05,K,A*48
$GPGSA,A,3,02,05,06,12,13,17,19,20,25,15,,,2.1,0.8,1.9*3E
$GPRMC,161146,V,0322.826522,N,07623.931108,W,000.03,227.9,030398,1.2,W,N*31
$GPGGA,161147.00,0322.826514,N,07623.931113,W,1,10,0.8,987.18,M,8.74,M,,*40
$GPVTG,292.2,T,,,000.10,N,000.18,K,A*43
$GPGSA,A,3,02,05,06,12,13,17,19,20,25,15,,,2.1,0.8,1.9*3E
$GPRMC,161147,V,0322.826514,N,07623.931113,W,000.10,292.2,030398,1.2,W,N*38
$GPGGA,161148.00,0322.826513,N,07623.931115,W,1,10,0.8,987.18,M,8.74,M,,*4E
$GPVTG,40.6,T,,,000.04,N,000.08,K,A*7E
$GPGSA,A,3,02,05,06,12,13,17,19,20,25,15,,,2.1,0.8,1.9*3E
$GPRMC,161148,V,0322.826513,N,07623.931115,W,000.04,40.6,030398,1.2,W,N*0A
$GPGGA,161149.00,0322.826511,N,07623.931117,W,1,10,0.8,987.19,M,8.74,M,,*4E
$GPVTG,49.8,T,,,000.12,N,000.22,K,A*76
$GPGSA,A,3,02,05,06,12,13,17,19,20,25,15,,,2.1,0.8,1.9*3E
$GPRMC,161149,V,0322.826511,N,07623.931117,W,000.12,49.8,030398,1.2,W,N*0B
$GPGGA,161150.00,0322.826513,N,07623.931118,W,1,10,0.8,987.19,M,8.74,M,,*4B
$GPVTG,76.1,T,,,000.02,N,000.04,K,A*76
$GPGSA,A,3,02,05,06,12,13,17,19,20,25,15,,,2.1,0.8,1.9*3E
$GPRMC,161150,V,0322.826513,N,07623.931118,W,000.02,76.1,030398,1.2,W,N*0A
$GPGGA,161151.00,0322.826517,N,07623.931120,W,1,10,0.8,987.19,M,8.74,M,,*45
$GPVTG,68.1,T,,,000.03,N,000.06,K,A*7A
$GPGSA,A,3,02,05,06,12,13,17,19,20,25,15,,,2.1,0.8,1.9*3E
$GPRMC,161151,V,0322.826517,N,07623.931120,W,000.03,68.1,030398,1.2,W,N*0A
$GPGGA,161152.00,0322.826520,N,07623.931120,W,1,10,0.8,987.19,M,8.74,M,,*42
$GPVTG,78.4,T,,,000.01,N,000.02,K,A*78
$GPGSA,A,3,02,05,06,12,13,17,19,20,25,15,,,2.1,0.8,1.9*3E
$GPRMC,161152,V,0322.826520,N,07623.931120,W,000.01,78.4,030398,1.2,W,N*0B
$GPGGA,161153.00,0322.826525,N,07623.931119,W,1,10,0.8,987.19,M,8.74,M,,*4C
$GPVTG,74.8,T,,,000.04,N,000.08,K,A*77
$GPGSA,A,3,02,05,06,12,13,17,19,20,25,15,,,2.1,0.8,1.9*3E
$GPRMC,161153,V,0322.826525,N,07623.931119,W,000.04,74.8,030398,1.2,W,N*00
$GPGGA,161154.00,0322.826528,N,07623.931120,W,1,10,0.8,987.18,M,8.74,M,,*4D
$GPVTG,53.5,T,,,000.08,N,000.15,K,A*7F
$GPGSA,A,3,02,05,06,12,13,17,19,20,25,15,,,2.1,0.8,1.9*3E
$GPRMC,161154,V,0322.826528,N,07623.931120,W,000.08,53.5,030398,1.2,W,N*04
$GPGGA,161155.00,0322.826529,N,07623.931121,W,1,10,0.8,987.18,M,8.74,M,,*4C
$GPVTG,204.1,T,,,000.05,N,000.08,K,A*4A
$GPGSA,A,3,02,05,06,12,13,17,19,20,25,15,,,2.1,0.8,1.9*3E
$GPRMC,161155,V,0322.826529,N,07623.931121,W,000.05,204.1,030398,1.2,W,N*3C
$GPGGA,161156.00,0322.826533,N,07623.931121,W,1,10,0.8,987.18,M,8.74,M,,*44
$GPVTG,120.8,T,,,000.06,N,000.11,K,A*4D
$GPGSA,A,3,02,05,06,12,13,17,19,20,25,15,,,2.1,0.8,1.9*3E
$GPRMC,161156,V,0322.826533,N,07623.931121,W,000.06,120.8,030398,1.2,W,N*3B
$GPGGA,161157.00,0322.826535,N,07623.931121,W,1,10,0.8,987.18,M,8.74,M,,*43
$GPVTG,31.5,T,,,000.07,N,000.14,K,A*75
$GPGSA,A,3,02,05,06,12,13,17,19,20,25,15,,,2.1,0.8,1.9*3E
$GPRMC,161157,V,0322.826535,N,07623.931121,W,000.07,31.5,030398,1.2,W,N*01
$GPGGA,161158.00,0322.826539,N,07623.931122,W,1,10,0.8,987.18,M,8.74,M,,*43
$GPVTG,203.0,T,,,000.04,N,000.08,K,A*4D
$GPGSA,A,3,02,05,06,12,13,17,19,20,25,15,,,2.1,0.8,1.9*3E
$GPRMC,161158,V,0322.826539,N,07623.931122,W,000.04,203.0,030398,1.2,W,N*34
$GPGGA,161159.00,0322.826543,N,07623.931123,W,1,10,0.8,987.19,M,8.74,M,,*4F
$GPVTG,163.6,T,,,000.10,N,000.18,K,A*4A
$GPGSA,A,3,02,05,06,12,13,17,19,20,25,15,,,2.1,0.8,1.9*3E
$GPRMC,161159,V,0322.826543,N,07623.931123,W,000.10,163.6,030398,1.2,W,N*3F
$GPGGA,161200.00,0322.826548,N,07623.931123,W,1,10,0.8,987.18,M,8.74,M,,*4A
$GPVTG,252.0,T,,,000.04,N,000.07,K,A*46
$GPGSA,A,3,02,05,06,12,13,17,19,20,25,15,,,2.1,0.8,1.9*3E
$GPRMC,161200,V,0322.826548,N,07623.931123,W,000.04,252.0,030398,1.2,W,N*39
$GPGGA,161201.00,0322.826549,N,07623.931123,W,1,10,0.8,987.18,M,8.74,M,,*4A
$GPVTG,212.8,T,,,000.05,N,000.09,K,A*45
$GPGSA,A,3,02,05,06,12,13,17,19,20,25,15,,,2.1,0.8,1.9*3E
$GPRMC,161201,V,0322.826549,N,07623.931123,W,000.05,212.8,030398,1.2,W,N*34
$GPGGA,161202.00,0322.826555,N,07623.931124,W,1,10,0.8,987.19,M,8.74,M,,*42
$GPVTG,27.0,T,,,000.05,N,000.09,K,A*79
$GPGSA,A,3,02,05,06,12,13,17,19,20,25,15,,,2.1,0.8,1.9*3E
$GPRMC,161202,V,0322.826555,N,07623.931124,W,000.05,27.0,030398,1.2,W,N*01
$GPGGA,161203.00,0322.826557,N,07623.931127,W,1,10,0.8,987.18,M,8.74,M,,*43
$GPVTG,57.6,T,,,000.03,N,000.06,K,A*71
$GPGSA,A,3,02,05,06,12,13,17,19,20,25,15,,,2.1,0.8,1.9*3E
$GPRMC,161203,V,0322.826557,N,07623.931127,W,000.03,57.6,030398,1.2,W,N*06
$GPGGA,161204.00,0322.826561,N,07623.931128,W,1,10,0.8,987.18,M,8.74,M,,*4E
$GPVTG,40.7,T,,,000.04,N,000.07,K,A*70
$GPGSA,A,3,02,05,06,12,13,17,19,20,25,15,,,2.1,0.8,1.9*3E
$GPRMC,161204,V,0322.826561,N,07623.931128,W,000.04,40.7,030398,1.2,W,N*0B
$GPGGA,161205.00,0322.826562,N,07623.931129,W,1,10,0.8,987.18,M,8.74,M,,*4D
$GPVTG,9.1,T,,,000.10,N,000.18,K,A*40
$GPGSA,A,3,02,05,06,12,13,17,19,20,25,15,,,2.1,0.8,1.9*3E
$GPRMC,161205,V,0322.826562,N,07623.931129,W,000.10,9.1,030398,1.2,W,N*36
$GPGGA,161206.00,0322.826565,N,07623.931131,W,1,10,0.8,987.18,M,8.74,M,,*40
$GPVTG,36.6,T,,,000.04,N,000.08,K,A*7F
$GPGSA,A,3,02,05,06,12,13,17,19,20,25,15,,,2.1,0.8,1.9*3E
$GPRMC,161206,V,0322.826565,N,07623.931131,W,000.04,36.6,030398,1.2,W,N*05
$GPGGA,161207.00,0322.826567,N,07623.931134,W,1,10,0.8,987.18,M,8.74,M,,*46
$GPVTG,30.2,T,,,000.01,N,000.02,K,A*72
$GPGSA,A,3,02,05,06,12,13,17,19,20,25,15,,,2.1,0.8,1.9*3E
$GPRMC,161207,V,0322.826567,N,07623.931134,W,000.01,30.2,030398,1.2,W,N*04
$GPGGA,161208.00,0322.826572,N,07623.931134,W,1,10,0.8,987.20,M,8.74,M,,*46
$GPVTG,283.5,T,,,000.05,N,000.08,K,A*41
$GPGSA,A,3,02,05,06,12,13,17,19,20,25,15,,,2.1,0.8,1.9*3E
$GPRMC,161208,V,0322.826572,N,07623.931134,W,000.05,283.5,030398,1.2,W,N*36
$GPGGA,161209.00,0322.826573,N,07623.931135,W,1,10,0.8,987.21,M,8.74,M,,*46
$GPVTG,191.1,T,,,000.04,N,000.08,K,A*44
$GPGSA,A,3,02,05,06,12,13,17,19,20,25,15,,,2.1,0.8,1.9*3E
$GPRMC,161209,V,0322.826573,N,07623.931135,W,000.04,191.1,030398,1.2,W,N*32
$GPGGA,161210.00,0322.826579,N,07623.931134,W,1,10,0.8,987.22,M,8.74,M,,*46
$GPVTG,48.8,T,,,000.02,N,000.03,K,A*75
$GPGSA,A,3,02,05,06,12,13,17,19,20,25,15,,,2.1,0.8,1.9*3E
$GPRMC,161210,V,0322.826579,N,07623.931134,W,000.02,48.8,030398,1.2,W,N*0B
$GPGGA,161211.00,0322.826579,N,07623.931134,W,1,10,0.8,987.23,M,8.74,M,,*46
$GPVTG,320.1,T,,,000.05,N,000.10,K,A*44
$GPGSA,A,3,02,05,06,12,13,17,19,20,25,15,,,2.1,0.8,1.9*3E
$GPRMC,161211,V,0322.826579,N,07623.931134,W,000.05,320.1,030398,1.2,W,N*39
$GPGGA,161212.00,0322.826584,N,07623.931135,W,1,10,0.8,987.23,M,8.74,M,,*46
$GPVTG,14.5,T,,,000.07,N,000.13,K,A*75
$GPGSA,A,3,02,05,06,12,13,17,19,20,25,15,,,2.1,0.8,1.9*3E
$GPRMC,161212,V,0322.826584,N,07623.931135,W,000.07,14.5,030398,1.2,W,N*0B
$GPGGA,161213.00,0322.826588,N,07623.931136,W,1,10,0.8,987.23,M,8.74,M,,*48
$GPVTG,29.8,T,,,000.02,N,000.04,K,A*75
$GPGSA,A,3,02,05,06,12,13,17,19,20,25,15,,,2.1,0.8,1.9*3E
$GPRMC,161213,V,0322.826588,N,07623.931136,W,000.02,29.8,030398,1.2,W,N*03
$GPGGA,161214.00,0322.826589,N,07623.931136,W,1,10,0.8,987.25,M,8.74,M,,*48
$GPVTG,246.2,T,,,000.10,N,000.19,K,A*4B
$GPGSA,A,3,02,05,06,12,13,17,19,20,25,15,,,2.1,0.8,1.9*3E
$GPRMC,161214,V,0322.826589,N,07623.931136,W,000.10,246.2,030398,1.2,W,N*37
$GPGGA,161215.00,0322.826591,N,07623.931136,W,1,10,0.8,987.26,M,8.74,M,,*43
$GPVTG,242.9,T,,,000.02,N,000.03,K,A*4C
$GPGSA,A,3,02,05,06,12,13,17,19,20,25,15,,,2.1,0.8,1.9*3E
$GPRMC,161215,V,0322.826591,N,07623.931136,W,000.02,242.9,030398,1.2,W,N*33
$GPGGA,161216.00,0322.826594,N,07623.931136,W,1,10,0.8,987.28,M,8.74,M,,*4B
$GPVTG,153.0,T,,,000.10,N,000.18,K,A*4F
$GPGSA,A,3,02,05,06,12,13,17,19,20,25,15,,,2.1,0.8,1.9*3E
$GPRMC,161216,V,0322.826594,N,07623.931136,W,000.10,153.0,030398,1.2,W,N*3C
$GPGGA,161217.00,0322.826596,N,07623.931137,W,1,10,0.8,987.28,M,8.74,M,,*49
$GPVTG,58.0,T,,,000.12,N,000.23,K,A*7F
$GPGSA,A,3,02,05,06,12,13,17,19,20,25,15,,,2.1,0.8,1.9*3E
$GPRMC,161217,V,0322.826596,N,07623.931137,W,000.12,58.0,030398,1.2,W,N*06
$GPGGA,161218.00,0322.826600,N,07623.931137,W,1,10,0.8,987.28,M,8.74,M,,*4A
$GPVTG,64.3,T,,,000.07,N,000.12,K,A*75
$GPGSA,A,3,02,05,06,12,13,17,19,20,25,15,,,2.1,0.8,1.9*3E
$GPRMC,161218,V,0322.826600,N,07623.931137,W,000.07,64.3,030398,1.2,W,N*0D
$GPGGA,161219.00,0322.826606,N,07623.931135,W,1,10,0.8,987.29,M,8.74,M,,*4E
$GPVTG,339.1,T,,,000.01,N,000.01,K,A*48
$GPGSA,A,3,02,05,06,12,13,17,19,20,25,15,,,2.1,0.8,1.9*3E
$GPRMC,161219,V,0322.826606,N,07623.931135,W,000.01,339.1,030398,1.2,W,N*37
$GPGGA,161220.00,0322.826611,N,07623.931136,W,1,10,0.8,987.29,M,8.74,M,,*41
$GPVTG,36.5,T,,,000.08,N,000.14,K,A*7D
$GPGSA,A,3,02,05,06,12,13,17,19,20,25,15,,,2.1,0.8,1.9*3E
$GPRMC,161220,V,0322.826611,N,07623.931136,W,000.08,36.5,030398,1.2,W,N*09
$GPGGA,161221.00,0322.826616,N,07623.931136,W,1,10,0.8,987.30,M,8.74,M,,*4F
$GPVTG,225.8,T,,,000.03,N,000.05,K,A*4B
$GPGSA,A,3,02,05,06,12,13,17,19,20,25,15,,,2.1,0.8,1.9*3E
$GPRMC,161221,V,0322.826616,N,07623.931136,W,000.03,225.8,030398,1.2,W,N*39
$GPGGA,161222.00,0322.826622,N,07623.931134,W,1,10,0.8,987.31,M,8.74,M,,*48
$GPVTG,168.0,T,,,000.08,N,000.14,K,A*42
$GPGSA,A,3,02,05,06,12,13,17,19,20,25,15,,,2.1,0.8,1.9*3E
$GPRMC,161222,V,0322.826622,N,07623.931134,W,000.08,168.0,030398,1.2,W,N*36
$GPGGA,161223.00,0322.826631,N,07623.931133,W,1,10,0.8,987.32,M,8.74,M,,*4F
$GPVTG,186.3,T,,,000.05,N,000.10,K,A*48
$GPGSA,A,3,02,05,06,12,13,17,19,20,25,15,,,2.1,0.8,1.9*3E
$GPRMC,161223,V,0322.826631,N,07623.931133,W,000.05,186.3,030398,1.2,W,N*3C
$GPGGA,161224.00,0322.826635,N,07623.931132,W,1,10,0.8,987.32,M,8.74,M,,*4D
$GPVTG,145.0,T,,,000.11,N,000.21,K,A*43
$GPGSA,A,3,02,05,06,12,13,17,19,20,25,15,,,2.1,0.8,1.9*3E
$GPRMC,161224,V,0322.826635,N,07623.931132,W,000.11,145.0,030398,1.2,W,N*37
$GPGGA,161225.00,0322.826635,N,07623.931132,W,1,10,0.8,987.35,M,8.74,M,,*4B
$GPVTG,135.1,T,,,000.03,N,000.06,K,A*43
$GPGSA,A,3,02,05,06,12,13,17,19,20,25,15,,,2.1,0.8,1.9*3E
$GPRMC,161225,V,0322.826635,N,07623.931132,W,000.03,135.1,030398,1.2,W,N*33
$GPGGA,161226.00,0322.826639,N,07623.931132,W,1,10,0.8,987.35,M,8.74,M,,*44
$GPVTG,13.1,T,,,000.06,N,000.11,K,A*75
$GPGSA,A,3,02,05,06,12,13,17,19,20,25,15,,,2.1,0.8,1.9*3E
$GPRMC,161226,V,0322.826639,N,07623.931132,W,000.06,13.1,030398,1.2,W,N*0C
$GPGGA,161227.00,0322.826642,N,07623.931133,W,1,10,0.8,987.37,M,8.74,M,,*4A
$GPVTG,43.5,T,,,000.09,N,000.16,K,A*7C
$GPGSA,A,3,02,05,06,12,13,17,19,20,25,15,,,2.1,0.8,1.9*3E
$GPRMC,161227,V,0322.826642,N,07623.931133,W,000.09,43.5,030398,1.2,W,N*0E
$GPGGA,161228.00,0322.826642,N,07623.931133,W,1,10,0.8,987.39,M,8.74,M,,*4B
$GPVTG,217.6,T,,,000.05,N,000.09,K,A*4E
$GPGSA,A,3,02,05,06,12,13,17,19,20,25,15,,,2.1,0.8,1.9*3E
$GPRMC,161228,V,0322.826642,N,07623.931133,W,000.05,217.6,030398,1.2,W,N*3D
$GPGGA,161229.00,0322.826647,N,07623.931132,W,1,10,0.8,987.40,M,8.74,M,,*40
$GPVTG,32.8,T,,,000.06,N,000.11,K,A*7F
$GPGSA,A,3,02,05,06,12,13,17,19,20,25,15,,,2.1,0.8,1.9*3E
$GPRMC,161229,V,0322.826647,N,07623.931132,W,000.06,32.8,030398,1.2,W,N*00
$GPGGA,161230.00,0322.826648,N,07623.931132,W,1,10,0.8,987.41,M,8.74,M,,*46
$GPVTG,356.0,T,,,000.04,N,000.07,K,A*43
$GPGSA,A,3,02,05,06,12,13,17,19,20,25,15,,,2.1,0.8,1.9*3E
$GPRMC,161230,V,0322.826648,N,07623.931132,W,000.04,356.0,030398,1.2,W,N*3C
$GPGGA,161231.00,0322.826648,N,07623.931132,W,1,10,0.8,987.43,M,8.74,M,,*45
$GPVTG,2.7,T,,,000.02,N,000.03,K,A*44
$GPGSA,A,3,02,05,06,12,13,17,19,20,25,15,,,2.1,0.8,1.9*3E
$GPRMC,161231,V,0322.826648,N,07623.931132,W,000.02,2.7,030398,1.2,W,N*3E
$GPGGA,161232.00,0322.826653,N,07623.931130,W,1,10,0.8,987.43,M,8.74,M,,*4E
$GPVTG,16.4,T,,,000.06,N,000.11,K,A*75
$GPGSA,A,3,02,05,06,12,13,17,19,20,25,15,,,2.1,0.8,1.9*3E
$GPRMC,161232,V,0322.826653,N,07623.931130,W,000.06,16.4,030398,1.2,W,N*07
$GPGGA,161233.00,0322.826656,N,07623.931129,W,1,10,0.8,987.44,M,8.74,M,,*45
$GPVTG,91.7,T,,,000.01,N,000.02,K,A*7C
$GPGSA,A,3,02,05,06,12,13,17,19,20,25,15,,,2.1,0.8,1.9*3E
$GPRMC,161233,V,0322.826656,N,07623.931129,W,000.01,91.7,030398,1.2,W,N*00
$GPGGA,161234.00,0322.826657,N,07623.931130,W,1,10,0.8,987.45,M,8.74,M,,*4A
$GPVTG,273.0,T,,,000.03,N,000.05,K,A*40
$GPGSA,A,3,02,05,06,12,13,17,19,20,25,15,,,2.1,0.8,1.9*3E
$GPRMC,161234,V,0322.826657,N,07623.931130,W,000.03,273.0,030398,1.2,W,N*35
$GPGGA,161235.00,0322.826660,N,07623.931130,W,1,10,0.8,987.46,M,8.74,M,,*4C
$GPVTG,51.1,T,,,000.05,N,000.09,K,A*79
$GPGSA,A,3,02,05,06,12,13,17,19,20,25,15,,,2.1,0.8,1.9*3E
$GPRMC,161235,V,0322.826660,N,07623.931130,W,000.05,51.1,030398,1.2,W,N*05
$GPGGA,161236.00,0322.826665,N,07623.931130,W,1,10,0.8,987.46,M,8.74,M,,*4A