$GPGGA,161122.00,0322.826773,N,07623.930976,W,1,10,0.8,986.88,M,8.74,M,,*42
$GPVTG,355.9,T,,,000.07,N,000.13,K,A*4F
$GPGSA,A,3,02,05,06,12,13,17,19,20,25,15,,,2.0,0.8,1.9*3F
$GPRMC,161122,V,0322.826773,N,07623.930976,W,000.07,355.9,030398,1.2,W,N*35
$GPGGA,161123.00,0322.826758,N,07623.930983,W,1,10,0.8,986.90,M,8.74,M,,*49
$GPVTG,55.6,T,,,000.02,N,000.03,K,A*77
$GPGSA,A,3,02,05,06,12,13,17,19,20,25,15,,,2.0,0.8,1.9*3F
$GPRMC,161123,V,0322.826758,N,07623.930983,W,000.02,55.6,030398,1.2,W,N*0E
$GPGGA,161124.00,0322.826735,N,07623.930994,W,1,10,0.8,986.95,M,8.74,M,,*46
$GPVTG,77.1,T,,,000.02,N,000.04,K,A*77
$GPGSA,A,3,02,05,06,12,13,17,19,20,25,15,,,2.1,0.8,1.9*3E
$GPRMC,161124,V,0322.826735,N,07623.930994,W,000.02,77.1,030398,1.2,W,N*03
$GPGGA,161125.00,0322.826722,N,07623.931000,W,1,10,0.8,986.97,M,8.74,M,,*46
$GPVTG,25.3,T,,,000.03,N,000.06,K,A*71
$GPGSA,A,3,02,05,06,12,13,17,19,20,25,15,,,2.1,0.8,1.9*3E
$GPRMC,161125,V,0322.826722,N,07623.931000,W,000.03,25.3,030398,1.2,W,N*05
$GPGGA,161126.00,0322.826698,N,07623.931012,W,1,10,0.8,987.00,M,8.74,M,,*49
$GPVTG,16.3,T,,,000.05,N,000.09,K,A*78
$GPGSA,A,3,02,05,06,12,13,17,19,20,25,15,,,2.1,0.8,1.9*3E
$GPRMC,161126,V,0322.826698,N,07623.931012,W,000.05,16.3,030398,1.2,W,N*03
$GPGGA,161127.00,0322.826688,N,07623.931017,W,1,10,0.8,987.01,M,8.74,M,,*4D
$GPVTG,39.5,T,,,000.04,N,000.08,K,A*73
$GPGSA,A,3,02,05,06,12,13,17,19,20,25,15,,,2.1,0.8,1.9*3E
$GPRMC,161127,V,0322.826688,N,07623.931017,W,000.04,39.5,030398,1.2,W,N*0C
$GPGGA,161128.00,0322.826669,N,07623.931027,W,1,10,0.8,987.02,M,8.74,M,,*4D
$GPVTG,45.6,T,,,000.04,N,000.08,K,A*7B
$GPGSA,A,3,02,05,06,12,13,17,19,20,25,15,,,2.1,0.8,1.9*3E
$GPRMC,161128,V,0322.826669,N,07623.931027,W,000.04,45.6,030398,1.2,W,N*07
$GPGGA,161129.00,0322.826658,N,07623.931033,W,1,10,0.8,987.03,M,8.74,M,,*4A
$GPVTG,67.2,T,,,000.00,N,000.01,K,A*72
$GPGSA,A,3,02,05,06,12,13,17,19,20,25,15,,,2.1,0.8,1.9*3E
$GPRMC,161129,V,0322.826658,N,07623.931033,W,000.00,67.2,030398,1.2,W,N*01
$GPGGA,161130.00,0322.826644,N,07623.931038,W,1,10,0.8,987.03,M,8.74,M,,*44
$GPVTG,199.5,T,,,000.03,N,000.06,K,A*41
$GPGSA,A,3,02,05,06,12,13,17,19,20,25,15,,,2.1,0.8,1.9*3E
$GPRMC,161130,V,0322.826644,N,07623.931038,W,000.03,199.5,030398,1.2,W,N*3B
$GPGGA,161131.00,0322.826636,N,07623.931041,W,1,10,0.8,987.04,M,8.74,M,,*49
$GPVTG,227.3,T,,,000.10,N,000.18,K,A*4C
$GPGSA,A,3,02,05,06,12,13,17,19,20,25,15,,,2.1,0.8,1.9*3E
$GPRMC,161131,V,0322.826636,N,07623.931041,W,000.10,227.3,030398,1.2,W,N*33
$GPGGA,161132.00,0322.826632,N,07623.931044,W,1,10,0.8,987.04,M,8.74,M,,*4B
$GPVTG,325.5,T,,,000.08,N,000.14,K,A*4C
$GPGSA,A,3,02,05,06,12,13,17,19,20,25,15,,,2.1,0.8,1.9*3E
$GPRMC,161132,V,0322.826632,N,07623.931044,W,000.08,325.5,030398,1.2,W,N*3D
$GPGGA,161133.00,0322.826628,N,07623.931047,W,1,10,0.8,987.04,M,8.74,M,,*42
$GPVTG,154.7,T,,,000.07,N,000.14,K,A*45
$GPGSA,A,3,02,05,06,12,13,17,19,20,25,15,,,2.1,0.8,1.9*3E
$GPRMC,161133,V,0322.826628,N,07623.931047,W,000.07,154.7,030398,1.2,W,N*3D
$GPGGA,161134.00,0322.826623,N,07623.931050,W,1,10,0.8,987.05,M,8.74,M,,*49
$GPVTG,272.5,T,,,000.02,N,000.03,K,A*43
$GPGSA,A,3,02,05,06,12,13,17,19,20,25,15,,,2.1,0.8,1.9*3E
$GPRMC,161134,V,0322.826623,N,07623.931050,W,000.02,272.5,030398,1.2,W,N*37
$GPGGA,161135.00,0322.826618,N,07623.931053,W,1,10,0.8,987.06,M,8.74,M,,*40
$GPVTG,207.2,T,,,000.01,N,000.02,K,A*44
$GPGSA,A,3,02,05,06,12,13,17,19,20,25,15,,,2.1,0.8,1.9*3E
$GPRMC,161135,V,0322.826618,N,07623.931053,W,000.01,207.2,030398,1.2,W,N*3B
$GPGGA,161136.00,0322.826615,N,07623.931055,W,1,10,0.8,987.06,M,8.74,M,,*48
$GPVTG,17.3,T,,,000.13,N,000.23,K,A*76
$GPGSA,A,3,02,05,06,12,13,17,19,20,25,15,,,2.1,0.8,1.9*3E
$GPRMC,161136,V,0322.826615,N,07623.931055,W,000.13,17.3,030398,1.2,W,N*02
$GPGGA,161137.00,0322.826608,N,07623.931060,W,1,10,0.8,987.09,M,8.74,M,,*4C
$GPVTG,180.5,T,,,000.04,N,000.07,K,A*4F
$GPGSA,A,3,02,05,06,12,13,17,19,20,25,15,,,2.1,0.8,1.9*3E
$GPRMC,161137,V,0322.826608,N,07623.931060,W,000.04,180.5,030398,1.2,W,N*36
$GPGGA,161138.00,0322.826605,N,07623.931064,W,1,10,0.8,987.09,M,8.74,M,,*4A
$GPVTG,38.3,T,,,000.04,N,000.07,K,A*7B
$GPGSA,A,3,02,05,06,12,13,17,19,20,25,15,,,2.1,0.8,1.9*3E
$GPRMC,161138,V,0322.826605,N,07623.931064,W,000.04,38.3,030398,1.2,W,N*04
$GPGGA,161139.00,0322.826599,N,07623.931070,W,1,10,0.8,987.10,M,8.74,M,,*40
$GPVTG,49.4,T,,,000.03,N,000.06,K,A*7C
$GPGSA,A,3,02,05,06,12,13,17,19,20,25,15,,,2.1,0.8,1.9*3E
$GPRMC,161139,V,0322.826599,N,07623.931070,W,000.03,49.4,030398,1.2,W,N*00
$GPGGA,161140.00,0322.826592,N,07623.931075,W,1,10,0.8,987.09,M,8.74,M,,*48
$GPVTG,209.6,T,,,000.04,N,000.08,K,A*41
$GPGSA,A,3,02,05,06,12,13,17,19,20,25,15,,,2.1,0.8,1.9*3E
$GPRMC,161140,V,0322.826592,N,07623.931075,W,000.04,209.6,030398,1.2,W,N*33
$GPGGA,161141.00,0322.826581,N,07623.931081,W,1,10,0.8,987.10,M,8.74,M,,*48
$GPVTG,21.5,T,,,000.04,N,000.07,K,A*75
$GPGSA,A,3,02,05,06,12,13,17,19,20,25,15,,,2.1,0.8,1.9*3E
$GPRMC,161141,V,0322.826581,N,07623.931081,W,000.04,21.5,030398,1.2,W,N*00
$GPGGA,161142.00,0322.826571,N,07623.931086,W,1,10,0.8,987.11,M,8.74,M,,*42
$GPVTG,26.7,T,,,000.04,N,000.07,K,A*70
$GPGSA,A,3,02,05,06,12,13,17,19,20,25,15,,,2.1,0.8,1.9*3E
$GPRMC,161142,V,0322.826571,N,07623.931086,W,000.04,26.7,030398,1.2,W,N*0E
$GPGGA,161143.00,0322.826552,N,07623.931092,W,1,10,0.8,987.13,M,8.74,M,,*45
$GPVTG,116.5,T,,,000.03,N,000.05,K,A*45
$GPGSA,A,3,02,05,06,12,13,17,19,20,25,15,,,2.1,0.8,1.9*3E
$GPRMC,161143,V,0322.826552,N,07623.931092,W,000.03,116.5,030398,1.2,W,N*3C
$GPGGA,161144.00,0322.826544,N,07623.931097,W,1,10,0.8,987.14,M,8.74,M,,*47
$GPVTG,79.6,T,,,000.05,N,000.09,K,A*74
$GPGSA,A,3,02,05,06,12,13,17,19,20,25,15,,,2.1,0.8,1.9*3E
$GPRMC,161144,V,0322.826544,N,07623.931097,W,000.05,79.6,030398,1.2,W,N*04
$GPGGA,161145.00,0322.826527,N,07623.931106,W,1,10,0.8,987.16,M,8.74,M,,*48
$GPVTG,237.6,T,,,000.02,N,000.04,K,A*46
$GPGSA,A,3,02,05,06,12,13,17,19,20,25,15,,,2.1,0.8,1.9*3E
$GPRMC,161145,V,0322.826527,N,07623.931106,W,000.02,237.6,030398,1.2,W,N*36
$GPGGA,161146.00,0322.826522,N,07623.931108,W,1,10,0.8,987.17,M,8.74,M,,*41
$GPVTG,227.9,T,,,000.03,N,000.05,K,A*48
$GPGSA,A,3,02,05,06,12,13,17,19,20,25,15,,,2.1,0.8,1.9*3E
$GPRMC,161146,V,0322.826522,N,07623.931108,W,000.03,227.9,030398,1.2,W,N*31
$GPGGA,161147.00,0322.826514,N,07623.931113,W,1,10,0.8,987.18,M,8.74,M,,*40
$GPVTG,292.2,T,,,000.10,N,000.18,K,A*43
$GPGSA,A,3,02,05,06,12,13,17,19,20,25,15,,,2.1,0.8,1.9*3E
$GPRMC,161147,V,0322.826514,N,07623.931113,W,000.10,292.2,030398,1.2,W,N*38
$GPGGA,161148.00,0322.826513,N,07623.931115,W,1,10,0.8,987.18,M,8.74,M,,*4E
$GPVTG,40.6,T,,,000.04,N,000.08,K,A*7E
$GPGSA,A,3,02,05,06,12,13,17,19,20,25,15,,,2.1,0.8,1.9*3E
$GPRMC,161148,V,0322.826513,N,07623.931115,W,000.04,40.6,030398,1.2,W,N*0A
$GPGGA,161149.00,0322.826511,N,07623.931117,W,1,10,0.8,987.19,M,8.74,M,,*4E
$GPVTG,49.8,T,,,000.12,N,000.22,K,A*76
$GPGSA,A,3,02,05,06,12,13,17,19,20,25,15,,,2.1,0.8,1.9*3E
$GPRMC,161149,V,0322.826511,N,07623.931117,W,000.12,49.8,030398,1.2,W,N*0B
$GPGGA,161150.00,0322.826513,N,07623.931118,W,1,10,0.8,987.19,M,8.74,M,,*4B
$GPVTG,76.1,T,,,000.02,N,000.04,K,A*76
$GPGSA,A,3,02,05,06,12,13,17,19,20,25,15,,,2.1,0.8,1.9*3E
$GPRMC,161150,V,0322.826513,N,07623.931118,W,000.02,76.1,030398,1.2,W,N*0A
$GPGGA,161151.00,0322.826517,N,07623.931120,W,1,10,0.8,987.19,M,8.74,M,,*45
$GPVTG,68.1,T,,,000.03,N,000.06,K,A*7A
$GPGSA,A,3,02,05,06,12,13,17,19,20,25,15,,,2.1,0.8,1.9*3E
$GPRMC,161151,V,0322.826517,N,07623.931120,W,000.03,68.1,030398,1.2,W,N*0A
$GPGGA,161152.00,0322.826520,N,07623.931120,W,1,10,0.8,987.19,M,8.74,M,,*42
$GPVTG,78.4,T,,,000.01,N,000.02,K,A*78
$GPGSA,A,3,02,05,06,12,13,17,19,20,25,15,,,2.1,0.8,1.9*3E
$GPRMC,161152,V,0322.826520,N,07623.931120,W,000.01,78.4,030398,1.2,W,N*0B
$GPGGA,161153.00,0322.826525,N,07623.931119,W,1,10,0.8,987.19,M,8.74,M,,*4C
$GPVTG,74.8,T,,,000.04,N,000.08,K,A*77
$GPGSA,A,3,02,05,06,12,13,17,19,20,25,15,,,2.1,0.8,1.9*3E
$GPRMC,161153,V,0322.826525,N,07623.931119,W,000.04,74.8,030398,1.2,W,N*00
$GPGGA,161154.00,0322.826528,N,07623.931120,W,1,10,0.8,987.18,M,8.74,M,,*4D
$GPVTG,53.5,T,,,000.08,N,000.15,K,A*7F
$GPGSA,A,3,02,05,06,12,13,17,19,20,25,15,,,2.1,0.8,1.9*3E
$GPRMC,161154,V,0322.826528,N,07623.931120,W,000.08,53.5,030398,1.2,W,N*04
$GPGGA,161155.00,0322.826529,N,07623.931121,W,1,10,0.8,987.18,M,8.74,M,,*4C
$GPVTG,204.1,T,,,000.05,N,000.08,K,A*4A
$GPGSA,A,3,02,05,06,12,13,17,19,20,25,15,,,2.1,0.8,1.9*3E
$GPRMC,161155,V,0322.826529,N,07623.931121,W,000.05,204.1,030398,1.2,W,N*3C
$GPGGA,161156.00,0322.826533,N,07623.931121,W,1,10,0.8,987.18,M,8.74,M,,*44
$GPVTG,120.8,T,,,000.06,N,000.11,K,A*4D
$GPGSA,A,3,02,05,06,12,13,17,19,20,25,15,,,2.1,0.8,1.9*3E
$GPRMC,161156,V,0322.826533,N,07623.931121,W,000.06,120.8,030398,1.2,W,N*3B
$GPGGA,161157.00,0322.826535,N,07623.931121,W,1,10,0.8,987.18,M,8.74,M,,*43
$GPVTG,31.5,T,,,000.07,N,000.14,K,A*75
$GPGSA,A,3,02,05,06,12,13,17,19,20,25,15,,,2.1,0.8,1.9*3E
$GPRMC,161157,V,0322.826535,N,07623.931121,W,000.07,31.5,030398,1.2,W,N*01
$GPGGA,161158.00,0322.826539,N,07623.931122,W,1,10,0.8,987.18,M,8.74,M,,*43
$GPVTG,203.0,T,,,000.04,N,000.08,K,A*4D
$GPGSA,A,3,02,05,06,12,13,17,19,20,25,15,,,2.1,0.8,1.9*3E
$GPRMC,161158,V,0322.826539,N,07623.931122,W,000.04,203.0,030398,1.2,W,N*34
$GPGGA,161159.00,0322.826543,N,07623.931123,W,1,10,0.8,987.19,M,8.74,M,,*4F
$GPVTG,163.6,T,,,000.10,N,000.18,K,A*4A
$GPGSA,A,3,02,05,06,12,13,17,19,20,25,15,,,2.1,0.8,1.9*3E
$GPRMC,161159,V,0322.826543,N,07623.931123,W,000.10,163.6,030398,1.2,W,N*3F
$GPGGA,161200.00,0322.826548,N,07623.931123,W,1,10,0.8,987.18,M,8.74,M,,*4A
$GPVTG,252.0,T,,,000.04,N,000.07,K,A*46
$GPGSA,A,3,02,05,06,12,13,17,19,20,25,15,,,2.1,0.8,1.9*3E
$GPRMC,161200,V,0322.826548,N,07623.931123,W,000.04,252.0,030398,1.2,W,N*39
$GPGGA,161201.00,0322.826549,N,07623.931123,W,1,10,0.8,987.18,M,8.74,M,,*4A
$GPVTG,212.8,T,,,000.05,N,000.09,K,A*45
$GPGSA,A,3,02,05,06,12,13,17,19,20,25,15,,,2.1,0.8,1.9*3E
$GPRMC,161201,V,0322.826549,N,07623.931123,W,000.05,212.8,030398,1.2,W,N*34
$GPGGA,161202.00,0322.826555,N,07623.931124,W,1,10,0.8,987.19,M,8.74,M,,*42
$GPVTG,27.0,T,,,000.05,N,000.09,K,A*79
$GPGSA,A,3,02,05,06,12,13,17,19,20,25,15,,,2.1,0.8,1.9*3E
$GPRMC,161202,V,0322.826555,N,07623.931124,W,000.05,27.0,030398,1.2,W,N*01
$GPGGA,161203.00,0322.826557,N,07623.931127,W,1,10,0.8,987.18,M,8.74,M,,*43
$GPVTG,57.6,T,,,000.03,N,000.06,K,A*71
$GPGSA,A,3,02,05,06,12,13,17,19,20,25,15,,,2.1,0.8,1.9*3E
$GPRMC,161203,V,0322.826557,N,07623.931127,W,000.03,57.6,030398,1.2,W,N*06
$GPGGA,161204.00,0322.826561,N,07623.931128,W,1,10,0.8,987.18,M,8.74,M,,*4E
$GPVTG,40.7,T,,,000.04,N,000.07,K,A*70
$GPGSA,A,3,02,05,06,12,13,17,19,20,25,15,,,2.1,0.8,1.9*3E
$GPRMC,161204,V,0322.826561,N,07623.931128,W,000.04,40.7,030398,1.2,W,N*0B
$GPGGA,161205.00,0322.826562,N,07623.931129,W,1,10,0.8,987.18,M,8.74,M,,*4D
$GPVTG,9.1,T,,,000.10,N,000.18,K,A*40
$GPGSA,A,3,02,05,06,12,13,17,19,20,25,15,,,2.1,0.8,1.9*3E
$GPRMC,161205,V,0322.826562,N,07623.931129,W,000.10,9.1,030398,1.2,W,N*36
$GPGGA,161206.00,0322.826565,N,07623.931131,W,1,10,0.8,987.18,M,8.74,M,,*40
$GPVTG,36.6,T,,,000.04,N,000.08,K,A*7F
$GPGSA,A,3,02,05,06,12,13,17,19,20,25,15,,,2.1,0.8,1.9*3E
$GPRMC,161206,V,0322.826565,N,07623.931131,W,000.04,36.6,030398,1.2,W,N*05
$GPGGA,161207.00,0322.826567,N,07623.931134,W,1,10,0.8,987.18,M,8.74,M,,*46
$GPVTG,30.2,T,,,000.01,N,000.02,K,A*72
$GPGSA,A,3,02,05,06,12,13,17,19,20,25,15,,,2.1,0.8,1.9*3E
$GPRMC,161207,V,0322.826567,N,07623.931134,W,000.01,30.2,030398,1.2,W,N*04
$GPGGA,161208.00,0322.826572,N,07623.931134,W,1,10,0.8,987.20,M,8.74,M,,*46
$GPVTG,283.5,T,,,000.05,N,000.08,K,A*41
$GPGSA,A,3,02,05,06,12,13,17,19,20,25,15,,,2.1,0.8,1.9*3E
$GPRMC,161208,V,0322.826572,N,07623.931134,W,000.05,283.5,030398,1.2,W,N*36
$GPGGA,161209.00,0322.826573,N,07623.931135,W,1,10,0.8,987.21,M,8.74,M,,*46
$GPVTG,191.1,T,,,000.04,N,000.08,K,A*44
$GPGSA,A,3,02,05,06,12,13,17,19,20,25,15,,,2.1,0.8,1.9*3E
$GPRMC,161209,V,0322.826573,N,07623.931135,W,000.04,191.1,030398,1.2,W,N*32
$GPGGA,161210.00,0322.826579,N,07623.931134,W,1,10,0.8,987.22,M,8.74,M,,*46
$GPVTG,48.8,T,,,000.02,N,000.03,K,A*75
$GPGSA,A,3,02,05,06,12,13,17,19,20,25,15,,,2.1,0.8,1.9*3E
$GPRMC,161210,V,0322.826579,N,07623.931134,W,000.02,48.8,030398,1.2,W,N*0B
$GPGGA,161211.00,0322.826579,N,07623.931134,W,1,10,0.8,987.23,M,8.74,M,,*46
$GPVTG,320.1,T,,,000.05,N,000.10,K,A*44
$GPGSA,A,3,02,05,06,12,13,17,19,20,25,15,,,2.1,0.8,1.9*3E
$GPRMC,161211,V,0322.826579,N,07623.931134,W,000.05,320.1,030398,1.2,W,N*39
$GPGGA,161212.00,0322.826584,N,07623.931135,W,1,10,0.8,987.23,M,8.74,M,,*46
$GPVTG,14.5,T,,,000.07,N,000.13,K,A*75
$GPGSA,A,3,02,05,06,12,13,17,19,20,25,15,,,2.1,0.8,1.9*3E
$GPRMC,161212,V,0322.826584,N,07623.931135,W,000.07,14.5,030398,1.2,W,N*0B
$GPGGA,161213.00,0322.826588,N,07623.931136,W,1,10,0.8,987.23,M,8.74,M,,*48
$GPVTG,29.8,T,,,000.02,N,000.04,K,A*75
$GPGSA,A,3,02,05,06,12,13,17,19,20,25,15,,,2.1,0.8,1.9*3E
$GPRMC,161213,V,0322.826588,N,07623.931136,W,000.02,29.8,030398,1.2,W,N*03
$GPGGA,161214.00,0322.826589,N,07623.931136,W,1,10,0.8,987.25,M,8.74,M,,*48
$GPVTG,246.2,T,,,000.10,N,000.19,K,A*4B
$GPGSA,A,3,02,05,06,12,13,17,19,20,25,15,,,2.1,0.8,1.9*3E
$GPRMC,161214,V,0322.826589,N,07623.931136,W,000.10,246.2,030398,1.2,W,N*37
$GPGGA,161215.00,0322.826591,N,07623.931136,W,1,10,0.8,987.26,M,8.74,M,,*43
$GPVTG,242.9,T,,,000.02,N,000.03,K,A*4C
$GPGSA,A,3,02,05,06,12,13,17,19,20,25,15,,,2.1,0.8,1.9*3E
$GPRMC,161215,V,0322.826591,N,07623.931136,W,000.02,242.9,030398,1.2,W,N*33
$GPGGA,161216.00,0322.826594,N,07623.931136,W,1,10,0.8,987.28,M,8.74,M,,*4B
$GPVTG,153.0,T,,,000.10,N,000.18,K,A*4F
$GPGSA,A,3,02,05,06,12,13,17,19,20,25,15,,,2.1,0.8,1.9*3E
$GPRMC,161216,V,0322.826594,N,07623.931136,W,000.10,153.0,030398,1.2,W,N*3C
$GPGGA,161217.00,0322.826596,N,07623.931137,W,1,10,0.8,987.28,M,8.74,M,,*49
$GPVTG,58.0,T,,,000.12,N,000.23,K,A*7F
$GPGSA,A,3,02,05,06,12,13,17,19,20,25,15,,,2.1,0.8,1.9*3E
$GPRMC,161217,V,0322.826596,N,07623.931137,W,000.12,58.0,030398,1.2,W,N*06
$GPGGA,161218.00,0322.826600,N,07623.931137,W,1,10,0.8,987.28,M,8.74,M,,*4A
$GPVTG,64.3,T,,,000.07,N,000.12,K,A*75
$GPGSA,A,3,02,05,06,12,13,17,19,20,25,15,,,2.1,0.8,1.9*3E
$GPRMC,161218,V,0322.826600,N,07623.931137,W,000.07,64.3,030398,1.2,W,N*0D
$GPGGA,161219.00,0322.826606,N,07623.931135,W,1,10,0.8,987.29,M,8.74,M,,*4E
$GPVTG,339.1,T,,,000.01,N,000.01,K,A*48
$GPGSA,A,3,02,05,06,12,13,17,19,20,25,15,,,2.1,0.8,1.9*3E
$GPRMC,161219,V,0322.826606,N,07623.931135,W,000.01,339.1,030398,1.2,W,N*37
$GPGGA,161220.00,0322.826611,N,07623.931136,W,1,10,0.8,987.29,M,8.74,M,,*41
$GPVTG,36.5,T,,,000.08,N,000.14,K,A*7D
$GPGSA,A,3,02,05,06,12,13,17,19,20,25,15,,,2.1,0.8,1.9*3E
$GPRMC,161220,V,0322.826611,N,07623.931136,W,000.08,36.5,030398,1.2,W,N*09
$GPGGA,161221.00,0322.826616,N,07623.931136,W,1,10,0.8,987.30,M,8.74,M,,*4F
$GPVTG,225.8,T,,,000.03,N,000.05,K,A*4B
$GPGSA,A,3,02,05,06,12,13,17,19,20,25,15,,,2.1,0.8,1.9*3E
$GPRMC,161221,V,0322.826616,N,07623.931136,W,000.03,225.8,030398,1.2,W,N*39
$GPGGA,161222.00,0322.826622,N,07623.931134,W,1,10,0.8,987.31,M,8.74,M,,*48
$GPVTG,168.0,T,,,000.08,N,000.14,K,A*42
$GPGSA,A,3,02,05,06,12,13,17,19,20,25,15,,,2.1,0.8,1.9*3E
$GPRMC,161222,V,0322.826622,N,07623.931134,W,000.08,168.0,030398,1.2,W,N*36
$GPGGA,161223.00,0322.826631,N,07623.931133,W,1,10,0.8,987.32,M,8.74,M,,*4F
$GPVTG,186.3,T,,,000.05,N,000.10,K,A*48
$GPGSA,A,3,02,05,06,12,13,17,19,20,25,15,,,2.1,0.8,1.9*3E
$GPRMC,161223,V,0322.826631,N,07623.931133,W,000.05,186.3,030398,1.2,W,N*3C
$GPGGA,161224.00,0322.826635,N,07623.931132,W,1,10,0.8,987.32,M,8.74,M,,*4D
$GPVTG,145.0,T,,,000.11,N,000.21,K,A*43
$GPGSA,A,3,02,05,06,12,13,17,19,20,25,15,,,2.1,0.8,1.9*3E
$GPRMC,161224,V,0322.826635,N,07623.931132,W,000.11,145.0,030398,1.2,W,N*37
$GPGGA,161225.00,0322.826635,N,07623.931132,W,1,10,0.8,987.35,M,8.74,M,,*4B
$GPVTG,135.1,T,,,000.03,N,000.06,K,A*43
$GPGSA,A,3,02,05,06,12,13,17,19,20,25,15,,,2.1,0.8,1.9*3E
$GPRMC,161225,V,0322.826635,N,07623.931132,W,000.03,135.1,030398,1.2,W,N*33
$GPGGA,161226.00,0322.826639,N,07623.931132,W,1,10,0.8,987.35,M,8.74,M,,*44
$GPVTG,13.1,T,,,000.06,N,000.11,K,A*75
$GPGSA,A,3,02,05,06,12,13,17,19,20,25,15,,,2.1,0.8,1.9*3E
$GPRMC,161226,V,0322.826639,N,07623.931132,W,000.06,13.1,030398,1.2,W,N*0C
$GPGGA,161227.00,0322.826642,N,07623.931133,W,1,10,0.8,987.37,M,8.74,M,,*4A
$GPVTG,43.5,T,,,000.09,N,000.16,K,A*7C
$GPGSA,A,3,02,05,06,12,13,17,19,20,25,15,,,2.1,0.8,1.9*3E
$GPRMC,161227,V,0322.826642,N,07623.931133,W,000.09,43.5,030398,1.2,W,N*0E
$GPGGA,161228.00,0322.826642,N,07623.931133,W,1,10,0.8,987.39,M,8.74,M,,*4B
$GPVTG,217.6,T,,,000.05,N,000.09,K,A*4E
$GPGSA,A,3,02,05,06,12,13,17,19,20,25,15,,,2.1,0.8,1.9*3E
$GPRMC,161228,V,0322.826642,N,07623.931133,W,000.05,217.6,030398,1.2,W,N*3D
$GPGGA,161229.00,0322.826647,N,07623.931132,W,1,10,0.8,987.40,M,8.74,M,,*40
$GPVTG,32.8,T,,,000.06,N,000.11,K,A*7F
$GPGSA,A,3,02,05,06,12,13,17,19,20,25,15,,,2.1,0.8,1.9*3E
$GPRMC,161229,V,0322.826647,N,07623.931132,W,000.06,32.8,030398,1.2,W,N*00
$GPGGA,161230.00,0322.826648,N,07623.931132,W,1,10,0.8,987.41,M,8.74,M,,*46
$GPVTG,356.0,T,,,000.04,N,000.07,K,A*43
$GPGSA,A,3,02,05,06,12,13,17,19,20,25,15,,,2.1,0.8,1.9*3E
$GPRMC,161230,V,0322.826648,N,07623.931132,W,000.04,356.0,030398,1.2,W,N*3C
$GPGGA,161231.00,0322.826648,N,07623.931132,W,1,10,0.8,987.43,M,8.74,M,,*45
$GPVTG,2.7,T,,,000.02,N,000.03,K,A*44
$GPGSA,A,3,02,05,06,12,13,17,19,20,25,15,,,2.1,0.8,1.9*3E
$GPRMC,161231,V,0322.826648,N,07623.931132,W,000.02,2.7,030398,1.2,W,N*3E
$GPGGA,161232.00,0322.826653,N,07623.931130,W,1,10,0.8,987.43,M,8.74,M,,*4E
$GPVTG,16.4,T,,,000.06,N,000.11,K,A*75
$GPGSA,A,3,02,05,06,12,13,17,19,20,25,15,,,2.1,0.8,1.9*3E
$GPRMC,161232,V,0322.826653,N,07623.931130,W,000.06,16.4,030398,1.2,W,N*07
$GPGGA,161233.00,0322.826656,N,07623.931129,W,1,10,0.8,987.44,M,8.74,M,,*45
$GPVTG,91.7,T,,,000.01,N,000.02,K,A*7C
$GPGSA,A,3,02,05,06,12,13,17,19,20,25,15,,,2.1,0.8,1.9*3E
$GPRMC,161233,V,0322.826656,N,07623.931129,W,000.01,91.7,030398,1.2,W,N*00
$GPGGA,161234.00,0322.826657,N,07623.931130,W,1,10,0.8,987.45,M,8.74,M,,*4A
$GPVTG,273.0,T,,,000.03,N,000.05,K,A*40
$GPGSA,A,3,02,05,06,12,13,17,19,20,25,15,,,2.1,0.8,1.9*3E
$GPRMC,161234,V,0322.826657,N,07623.931130,W,000.03,273.0,030398,1.2,W,N*35
$GPGGA,161235.00,0322.826660,N,07623.931130,W,1,10,0.8,987.46,M,8.74,M,,*4C
$GPVTG,51.1,T,,,000.05,N,000.09,K,A*79
$GPGSA,A,3,02,05,06,12,13,17,19,20,25,15,,,2.1,0.8,1.9*3E
$GPRMC,161235,V,0322.826660,N,07623.931130,W,000.05,51.1,030398,1.2,W,N*05
$GPGGA,161236.00,0322.826665,N,07623.931130,W,1,10,0.8,987.46,M,8.74,M,,*4A
$GPVTG,59.8,T,,,000.08,N,000.15,K,A*78
$GPGSA,A,3,02,05,06,12,13,17,19,20,25,15,,,2.1,0.8,1.9*3E
$GPRMC,161236,V,0322.826665,N,07623.931130,W,000.08,59.8,030398,1.2,W,N*0F
$GPGGA,161237.00,0322.826664,N,07623.931130,W,1,10,0.8,987.47,M,8.74,M,,*4B
$GPVTG,326.3,T,,,000.10,N,000.19,K,A*4D
$GPGSA,A,3,02,05,06,12,13,17,19,20,25,15,,,2.1,0.8,1.9*3E
$GPRMC,161237,V,0322.826664,N,07623.931130,W,000.10,326.3,030398,1.2,W,N*36
$GPGGA,161238.00,0322.826667,N,07623.931132,W,1,10,0.8,987.48,M,8.74,M,,*4A
$GPVTG,83.7,T,,,000.01,N,000.02,K,A*7F
$GPGSA,A,3,02,05,06,12,13,17,19,20,25,15,,,2.1,0.8,1.9*3E
$GPRMC,161238,V,0322.826667,N,07623.931132,W,000.01,83.7,030398,1.2,W,N*00
$GPGGA,161239.00,0322.826668,N,07623.931132,W,1,10,0.8,987.49,M,8.74,M,,*45
$GPVTG,245.2,T,,,000.13,N,000.24,K,A*45
$GPGSA,A,3,02,05,06,12,13,17,19,20,25,15,,,2.1,0.8,1.9*3E
$GPRMC,161239,V,0322.826668,N,07623.931132,W,000.13,245.2,030398,1.2,W,N*30
$GPGGA,161240.00,0322.826667,N,07623.931134,W,1,10,0.8,987.50,M,8.74,M,,*4A
$GPVTG,48.1,T,,,000.02,N,000.03,K,A*7C
$GPGSA,A,3,02,05,06,12,13,17,19,20,25,15,,,2.1,0.8,1.9*3E
$GPRMC,161240,V,0322.826667,N,07623.931134,W,000.02,48.1,030398,1.2,W,N*0B
$GPGGA,161241.00,0322.826667,N,07623.931133,W,1,10,0.8,987.51,M,8.74,M,,*4D
$GPVTG,42.4,T,,,000.03,N,000.06,K,A*77
$GPGSA,A,3,02,05,06,12,13,17,19,20,25,15,,,2.1,0.8,1.9*3E
$GPRMC,161241,V,0322.826667,N,07623.931133,W,000.03,42.4,030398,1.2,W,N*03
$GPGGA,161242.00,0322.826669,N,07623.931132,W,1,10,0.8,987.52,M,8.74,M,,*42
$GPVTG,69.3,T,,,000.02,N,000.04,K,A*7A
$GPGSA,A,3,02,05,06,12,13,17,19,20,25,15,,,2.1,0.8,1.9*3E
$GPRMC,161242,V,0322.826669,N,07623.931132,W,000.02,69.3,030398,1.2,W,N*00
$GPGGA,161243.00,0322.826668,N,07623.931133,W,1,10,0.8,987.52,M,8.74,M,,*43
$GPVTG,121.4,T,,,000.05,N,000.10,K,A*42
$GPGSA,A,3,02,05,06,12,13,17,19,20,25,15,,,2.1,0.8,1.9*3E
$GPRMC,161243,V,0322.826668,N,07623.931133,W,000.05,121.4,030398,1.2,W,N*3C
$GPGGA,161244.00,0322.826670,N,07623.931133,W,1,10,0.8,987.53,M,8.74,M,,*4C
$GPVTG,211.8,T,,,000.02,N,000.04,K,A*4C
$GPGSA,A,3,02,05,06,12,13,17,19,20,25,15,,,2.1,0.8,1.9*3E
$GPRMC,161244,V,0322.826670,N,07623.931133,W,000.02,211.8,030398,1.2,W,N*39
$GPGGA,161245.00,0322.826670,N,07623.931135,W,1,10,0.8,987.53,M,8.74,M,,*4B
$GPVTG,226.1,T,,,000.07,N,000.14,K,A*45
$GPGSA,A,3,02,05,06,12,13,17,19,20,25,15,,,2.1,0.8,1.9*3E
$GPRMC,161245,V,0322.826670,N,07623.931135,W,000.07,226.1,030398,1.2,W,N*36
$GPGGA,161246.00,0322.826671,N,07623.931136,W,1,10,0.8,987.54,M,8.74,M,,*4D
$GPVTG,210.0,T,,,000.03,N,000.05,K,A*45
$GPGSA,A,3,02,05,06,12,13,17,19,20,25,15,,,2.1,0.8,1.9*3E
$GPRMC,161246,V,0322.826671,N,07623.931136,W,000.03,210.0,030398,1.2,W,N*37
$GPGGA,161247.00,0322.826672,N,07623.931135,W,1,10,0.8,987.54,M,8.74,M,,*4C
$GPVTG,232.6,T,,,000.01,N,000.02,K,A*46
$GPGSA,A,3,02,05,06,12,13,17,19,20,25,15,,,2.1,0.8,1.9*3E
$GPRMC,161247,V,0322.826672,N,07623.931135,W,000.01,232.6,030398,1.2,W,N*32
$GPGGA,161248.00,0322.826671,N,07623.931136,W,1,10,0.8,987.55,M,8.74,M,,*42
$GPVTG,26.9,T,,,000.11,N,000.20,K,A*7F
$GPGSA,A,3,02,05,06,12,13,17,19,20,25,15,,,2.1,0.8,1.9*3E
$GPRMC,161248,V,0322.826671,N,07623.931136,W,000.11,26.9,030398,1.2,W,N*04
$GPGGA,161249.00,0322.826670,N,07623.931136,W,1,10,0.8,987.57,M,8.74,M,,*40
$GPVTG,151.1,T,,,000.03,N,000.05,K,A*42
$GPGSA,A,3,02,05,06,12,13,17,19,20,25,15,,,2.1,0.8,1.9*3E
$GPRMC,161249,V,0322.826670,N,07623.931136,W,000.03,151.1,030398,1.2,W,N*3E
$GPGGA,161250.00,0322.826670,N,07623.931138,W,1,10,0.8,987.58,M,8.74,M,,*49
$GPVTG,112.9,T,,,000.07,N,000.12,K,A*4F
$GPGSA,A,3,02,05,06,12,13,17,19,20,25,15,,,2.1,0.8,1.9*3E
$GPRMC,161250,V,0322.826670,N,07623.931138,W,000.07,112.9,030398,1.2,W,N*33
$GPGGA,161251.00,0322.826668,N,07623.931138,W,1,10,0.8,987.60,M,8.74,M,,*4A
$GPVTG,25.0,T,,,000.14,N,000.27,K,A*77
$GPGSA,A,3,02,05,06,12,13,17,19,20,25,15,,,2.1,0.8,1.9*3E
$GPRMC,161251,V,0322.826668,N,07623.931138,W,000.14,25.0,030398,1.2,W,N*05
$GPGGA,161252.00,0322.826665,N,07623.931139,W,1,10,0.8,987.62,M,8.74,M,,*47
$GPVTG,26.8,T,,,000.08,N,000.15,K,A*70
$GPGSA,A,3,02,05,06,12,13,17,19,20,25,15,,,2.1,0.8,1.9*3E
$GPRMC,161252,V,0322.826665,N,07623.931139,W,000.08,26.8,030398,1.2,W,N*0C
$GPGGA,161253.00,0322.826664,N,07623.931139,W,1,10,0.8,987.61,M,8.74,M,,*44
$GPVTG,27.5,T,,,000.06,N,000.11,K,A*76
$GPGSA,A,3,02,05,06,12,13,17,19,20,25,15,,,2.1,0.8,1.9*3E
$GPRMC,161253,V,0322.826664,N,07623.931139,W,000.06,27.5,030398,1.2,W,N*0E
$GPGGA,161254.00,0322.826663,N,07623.931140,W,1,10,0.8,987.62,M,8.74,M,,*49
$GPVTG,109.5,T,,,000.05,N,000.09,K,A*41
$GPGSA,A,3,02,05,06,12,13,17,19,20,25,15,,,2.1,0.8,1.9*3E
$GPRMC,161254,V,0322.826663,N,07623.931140,W,000.05,109.5,030398,1.2,W,N*3E
$GPGGA,161255.00,0322.826661,N,07623.931139,W,1,10,0.8,987.62,M,8.74,M,,*44
$GPVTG,68.5,T,,,000.04,N,000.08,K,A*77
$GPGSA,A,3,02,05,06,12,13,17,19,20,25,15,,,2.1,0.8,1.9*3E
$GPRMC,161255,V,0322.826661,N,07623.931139,W,000.04,68.5,030398,1.2,W,N*04
$GPGGA,161256.00,0322.826659,N,07623.931140,W,1,10,0.8,987.63,M,8.74,M,,*43
$GPVTG,40.3,T,,,000.06,N,000.10,K,A*70
$GPGSA,A,3,02,05,06,12,13,17,19,20,25,15,,,2.1,0.8,1.9*3E
$GPRMC,161256,V,0322.826659,N,07623.931140,W,000.06,40.3,030398,1.2,W,N*0C
$GPGGA,161257.00,0322.826652,N,07623.931143,W,1,10,0.8,987.63,M,8.74,M,,*4A
$GPVTG,162.5,T,,,000.03,N,000.06,K,A*45
$GPGSA,A,3,02,05,06,12,13,17,19,20,25,15,,,2.1,0.8,1.9*3E
$GPRMC,161257,V,0322.826652,N,07623.931143,W,000.03,162.5,030398,1.2,W,N*37
$GPGGA,161258.00,0322.826650,N,07623.931144,W,1,10,0.8,987.64,M,8.74,M,,*47
$GPVTG,26.0,T,,,000.08,N,000.15,K,A*78
$GPGSA,A,3,02,05,06,12,13,17,19,20,25,15,,,2.1,0.8,1.9*3E
$GPRMC,161258,V,0322.826650,N,07623.931144,W,000.08,26.0,030398,1.2,W,N*02
$GPGGA,161259.00,0322.826648,N,07623.931145,W,1,10,0.8,987.64,M,8.74,M,,*4E
$GPVTG,223.8,T,,,000.07,N,000.12,K,A*4F
$GPGSA,A,3,02,05,06,12,13,17,19,20,25,15,,,2.1,0.8,1.9*3E
$GPRMC,161259,V,0322.826648,N,07623.931145,W,000.07,223.8,030398,1.2,W,N*3B
$GPGGA,161300.00,0322.826647,N,07623.931145,W,1,10,0.8,987.63,M,8.74,M,,*4B
$GPVTG,81.8,T,,,000.05,N,000.09,K,A*7D
$GPGSA,A,3,02,05,06,12,13,17,19,20,25,15,,,2.1,0.8,1.9*3E
$GPRMC,161300,V,0322.826647,N,07623.931145,W,000.05,81.8,030398,1.2,W,N*01
$GPGGA,161301.00,0322.826643,N,07623.931145,W,1,10,0.8,987.63,M,8.74,M,,*4E
$GPVTG,201.2,T,,,000.05,N,000.09,K,A*4D
$GPGSA,A,3,02,05,06,12,13,17,19,20,25,15,,,2.1,0.8,1.9*3E
$GPRMC,161301,V,0322.826643,N,07623.931145,W,000.05,201.2,030398,1.2,W,N*34
$GPGGA,161302.00,0322.826644,N,07623.931144,W,1,10,0.8,987.63,M,8.74,M,,*4B
$GPVTG,40.0,T,,,000.12,N,000.22,K,A*77
$GPGSA,A,3,02,05,06,12,13,17,19,20,25,15,,,2.1,0.8,1.9*3E
$GPRMC,161302,V,0322.826644,N,07623.931144,W,000.12,40.0,030398,1.2,W,N*02
$GPGGA,161303.00,0322.826638,N,07623.931146,W,1,10,0.8,987.63,M,8.74,M,,*43
$GPVTG,20.8,T,,,000.14,N,000.26,K,A*7B
$GPGSA,A,3,02,05,06,12,13,17,19,20,25,15,,,2.1,0.8,1.9*3E
$GPRMC,161303,V,0322.826638,N,07623.931146,W,000.14,20.8,030398,1.2,W,N*02
$GPGGA,161304.00,0322.826639,N,07623.931145,W,1,10,0.8,987.63,M,8.74,M,,*46
$GPVTG,3.6,T,,,000.08,N,000.15,K,A*49
$GPGSA,A,3,02,05,06,12,13,17,19,20,25,15,,,2.1,0.8,1.9*3E
$GPRMC,161304,V,0322.826639,N,07623.931145,W,000.08,3.6,030398,1.2,W,N*35
$GPGGA,161305.00,0322.826625,N,07623.931151,W,1,10,0.8,987.65,M,8.74,M,,*49
$GPVTG,101.5,T,,,000.02,N,000.04,K,A*43
$GPGSA,A,3,02,05,06,12,13,17,19,20,25,15,,,2.1,0.8,1.9*3E
$GPRMC,161305,V,0322.826625,N,07623.931151,W,000.02,101.5,030398,1.2,W,N*36
$GPGGA,161306.00,0322.826620,N,07623.931151,W,1,10,0.8,987.65,M,8.74,M,,*4F
$GPVTG,153.9,T,,,000.03,N,000.05,K,A*48
$GPGSA,A,3,02,05,06,12,13,17,19,20,25,15,,,2.1,0.8,1.9*3E
$GPRMC,161306,V,0322.826620,N,07623.931151,W,000.03,153.9,030398,1.2,W,N*3A
$GPGGA,161307.00,0322.826800,N,07623.931080,W,1,09,0.9,987.43,M,8.74,M,,*42
$GPVTG,68.4,T,,,000.06,N,000.11,K,A*7C
$GPGSA,A,3,05,06,12,13,17,19,20,25,15,,,,2.1,0.9,1.9*3D
$GPRMC,161307,V,0322.826800,N,07623.931080,W,000.06,68.4,030398,1.2,W,N*0B
$GPGGA,161308.00,0322.826741,N,07623.931102,W,1,10,0.8,987.49,M,8.74,M,,*4F
$GPVTG,25.3,T,,,000.27,N,000.49,K,A*7C
$GPGSA,A,3,02,05,06,12,13,17,19,20,25,15,,,2.1,0.8,1.9*3E
$GPRMC,161308,V,0322.826741,N,07623.931102,W,000.27,25.3,030398,1.2,W,N*08
$GPGGA,161309.00,0322.826668,N,07623.931131,W,1,10,0.8,987.58,M,8.74,M,,*44
$GPVTG,199.2,T,,,000.19,N,000.35,K,A*4D
$GPGSA,A,3,02,05,06,12,13,17,19,20,25,15,,,2.1,0.8,1.9*3E
$GPRMC,161309,V,0322.826668,N,07623.931131,W,000.19,199.2,030398,1.2,W,N*39
$GPGGA,161310.00,0322.826632,N,07623.931144,W,1,10,0.8,987.62,M,8.74,M,,*48
$GPVTG,32.1,T,,,000.07,N,000.13,K,A*75
$GPGSA,A,3,02,05,06,12,13,17,19,20,25,15,,,2.1,0.8,1.9*3E
$GPRMC,161310,V,0322.826632,N,07623.931144,W,000.07,32.1,030398,1.2,W,N*00
$GPGGA,161311.00,0322.826804,N,07623.931076,W,1,09,0.9,987.41,M,8.74,M,,*4A
$GPVTG,181.2,T,,,000.03,N,000.05,K,A*4C
$GPGSA,A,3,05,06,12,13,17,19,20,25,15,,,,2.1,0.9,1.9*3D
$GPRMC,161311,V,0322.826804,N,07623.931076,W,000.03,181.2,030398,1.2,W,N*34
$GPGGA,161312.00,0322.826916,N,07623.931033,W,1,09,0.9,987.26,M,8.74,M,,*4B
$GPVTG,15.2,T,,,000.04,N,000.08,K,A*7A
$GPGSA,A,3,05,06,12,13,17,19,20,25,15,,,,2.1,0.9,1.9*3D
$GPRMC,161312,V,0322.826916,N,07623.931033,W,000.04,15.2,030398,1.2,W,N*0F
$GPGGA,161313.00,0322.826987,N,07623.931005,W,1,09,0.9,987.17,M,8.74,M,,*45
$GPVTG,335.5,T,,,000.05,N,000.09,K,A*4C
$GPGSA,A,3,05,06,12,13,17,19,20,25,15,,,,2.1,0.9,1.9*3D
$GPRMC,161313,V,0322.826987,N,07623.931005,W,000.05,335.5,030398,1.2,W,N*34
$GPGGA,161314.00,0322.827061,N,07623.930977,W,1,09,0.9,987.07,M,8.74,M,,*4E
$GPVTG,37.0,T,,,000.03,N,000.05,K,A*72
$GPGSA,A,3,05,06,12,13,17,19,20,25,15,,,,2.1,0.9,1.9*3D
$GPRMC,161314,V,0322.827061,N,07623.930977,W,000.03,37.0,030398,1.2,W,N*0C
$GPGGA,161315.00,0322.827078,N,07623.930969,W,1,09,0.9,987.04,M,8.74,M,,*4B
$GPVTG,165.8,T,,,000.05,N,000.10,K,A*4E
$GPGSA,A,3,05,06,12,13,17,19,20,25,15,,,,2.1,0.9,1.9*3D
$GPRMC,161315,V,0322.827078,N,07623.930969,W,000.05,165.8,030398,1.2,W,N*32
$GPGGA,161316.00,0322.827097,N,07623.930963,W,1,09,0.9,987.01,M,8.74,M,,*46
$GPVTG,283.7,T,,,000.07,N,000.13,K,A*4B
$GPGSA,A,3,05,06,12,13,17,19,20,25,15,,,,2.1,0.9,1.9*3D
$GPRMC,161316,V,0322.827097,N,07623.930963,W,000.07,283.7,030398,1.2,W,N*3C
$GPGGA,161317.00,0322.827100,N,07623.930962,W,1,09,0.9,987.00,M,8.74,M,,*48
$GPVTG,4.2,T,,,000.05,N,000.09,K,A*4A
$GPGSA,A,3,05,06,12,13,17,19,20,25,15,,,,2.1,0.9,1.9*3D
$GPRMC,161317,V,0322.827100,N,07623.930962,W,000.05,4.2,030398,1.2,W,N*39
$GPGGA,161318.00,0322.827103,N,07623.930962,W,1,09,0.9,986.99,M,8.74,M,,*45
$GPVTG,32.0,T,,,000.02,N,000.04,K,A*77
$GPGSA,A,3,05,06,12,13,17,19,20,25,15,,,,2.1,0.9,1.9*3D
$GPRMC,161318,V,0322.827103,N,07623.930962,W,000.02,32.0,030398,1.2,W,N*05
$GPGGA,161319.00,0322.827103,N,07623.930961,W,1,09,0.9,986.99,M,8.74,M,,*47
$GPVTG,82.0,T,,,000.07,N,000.12,K,A*7E
$GPGSA,A,3,05,06,12,13,17,19,20,25,15,,,,2.1,0.9,1.9*3D
$GPRMC,161319,V,0322.827103,N,07623.930961,W,000.07,82.0,030398,1.2,W,N*09
$GPGGA,161320.00,0322.827102,N,07623.930963,W,1,09,0.9,986.99,M,8.74,M,,*4E
$GPVTG,188.0,T,,,000.03,N,000.05,K,A*47
$GPGSA,A,3,05,06,12,13,17,19,20,25,15,,,,2.1,0.9,1.9*3D
$GPRMC,161320,V,0322.827102,N,07623.930963,W,000.03,188.0,030398,1.2,W,N*3F
$GPGGA,161321.00,0322.827101,N,07623.930964,W,1,09,0.9,986.98,M,8.74,M,,*4A
$GPVTG,306.9,T,,,000.03,N,000.05,K,A*4A
$GPGSA,A,3,05,06,12,13,17,19,20,25,15,,,,2.1,0.9,1.9*3D
$GPRMC,161321,V,0322.827101,N,07623.930964,W,000.03,306.9,030398,1.2,W,N*37
$GPGGA,161322.00,0322.827098,N,07623.930965,W,1,09,0.9,986.98,M,8.74,M,,*49
$GPVTG,279.5,T,,,000.05,N,000.09,K,A*45
$GPGSA,A,3,05,06,12,13,17,19,20,25,15,,,,2.1,0.9,1.9*3D
$GPRMC,161322,V,0322.827098,N,07623.930965,W,000.05,279.5,030398,1.2,W,N*37
$GPGGA,161323.00,0322.827096,N,07623.930966,W,1,09,0.9,986.98,M,8.74,M,,*45
$GPVTG,348.2,T,,,000.04,N,000.08,K,A*41
$GPGSA,A,3,05,06,12,13,17,19,20,25,15,,,,2.1,0.9,1.9*3D
$GPRMC,161323,V,0322.827096,N,07623.930966,W,000.04,348.2,030398,1.2,W,N*3E
$GPGGA,161324.00,0322.827094,N,07623.930967,W,1,09,0.9,986.97,M,8.74,M,,*4E
$GPVTG,127.5,T,,,000.02,N,000.04,K,A*47
$GPGSA,A,3,05,06,12,13,17,19,20,25,15,,,,2.1,0.9,1.9*3D
$GPRMC,161324,V,0322.827094,N,07623.930967,W,000.02,127.5,030398,1.2,W,N*30
$GPGGA,161325.00,0322.827092,N,07623.930967,W,1,09,0.9,986.96,M,8.74,M,,*48
$GPVTG,347.0,T,,,000.09,N,000.17,K,A*4F
$GPGSA,A,3,05,06,12,13,17,19,20,25,15,,,,2.1,0.9,1.9*3D
$GPRMC,161325,V,0322.827092,N,07623.930967,W,000.09,347.0,030398,1.2,W,N*3D
$GPGGA,161326.00,0322.827091,N,07623.930970,W,1,09,0.9,986.95,M,8.74,M,,*4D
$GPVTG,158.4,T,,,000.09,N,000.16,K,A*46
$GPGSA,A,3,05,06,12,13,17,19,20,25,15,,,,2.1,0.9,1.9*3D
$GPRMC,161326,V,0322.827091,N,07623.930970,W,000.09,158.4,030398,1.2,W,N*33
$GPGGA,161327.00,0322.827089,N,07623.930971,W,1,09,0.9,986.95,M,8.74,M,,*44
$GPVTG,53.2,T,,,000.16,N,000.30,K,A*70
$GPGSA,A,3,05,06,12,13,17,19,20,25,15,,,,2.1,0.9,1.9*3D
$GPRMC,161327,V,0322.827089,N,07623.930971,W,000.16,53.2,030398,1.2,W,N*08
$GPGGA,161328.00,0322.827087,N,07623.930974,W,1,09,0.9,986.94,M,8.74,M,,*41
$GPVTG,251.6,T,,,000.05,N,000.10,K,A*44
$GPGSA,A,3,05,06,12,13,17,19,20,25,15,,,,2.1,0.9,1.9*3D
$GPRMC,161328,V,0322.827087,N,07623.930974,W,000.05,251.6,030398,1.2,W,N*3A
$GPGGA,161329.00,0322.827087,N,07623.930973,W,1,09,0.9,986.95,M,8.74,M,,*46
$GPVTG,17.0,T,,,000.04,N,000.07,K,A*75
$GPGSA,A,3,05,06,12,13,17,19,20,25,15,,,,2.1,0.9,1.9*3D
$GPRMC,161329,V,0322.827087,N,07623.930973,W,000.04,17.0,030398,1.2,W,N*0B
$GPGGA,161330.00,0322.827087,N,07623.930976,W,1,09,0.9,986.94,M,8.74,M,,*4A
$GPVTG,212.7,T,,,000.05,N,000.10,K,A*42
$GPGSA,A,3,05,06,12,13,17,19,20,25,15,,,,2.1,0.9,1.9*3D
$GPRMC,161330,V,0322.827087,N,07623.930976,W,000.05,212.7,030398,1.2,W,N*37
$GPGGA,161331.00,0322.827086,N,07623.930977,W,1,09,0.9,986.93,M,8.74,M,,*4C
$GPVTG,193.0,T,,,000.08,N,000.16,K,A*44
$GPGSA,A,3,05,06,12,13,17,19,20,25,15,,,,2.1,0.9,1.9*3D
$GPRMC,161331,V,0322.827086,N,07623.930977,W,000.08,193.0,030398,1.2,W,N*36
$GPGGA,161332.00,0322.827087,N,07623.930977,W,1,09,0.9,986.92,M,8.74,M,,*4F
$GPVTG,222.7,T,,,000.03,N,000.05,K,A*43
$GPGSA,A,3,05,06,12,13,17,19,20,25,15,,,,2.1,0.9,1.9*3D
$GPRMC,161332,V,0322.827087,N,07623.930977,W,000.03,222.7,030398,1.2,W,N*31
$GPGGA,161333.00,0322.827085,N,07623.930977,W,1,09,0.9,986.92,M,8.74,M,,*4C
$GPVTG,6.9,T,,,000.02,N,000.04,K,A*49
$GPGSA,A,3,05,06,12,13,17,19,20,25,15,,,,2.1,0.9,1.9*3D
$GPRMC,161333,V,0322.827085,N,07623.930977,W,000.02,6.9,030398,1.2,W,N*39
$GPGGA,161334.00,0322.827086,N,07623.930976,W,1,09,0.9,986.91,M,8.74,M,,*4A
$GPVTG,257.7,T,,,000.01,N,000.01,K,A*47
$GPGSA,A,3,05,06,12,13,17,19,20,25,15,,,,2.1,0.9,1.9*3D
$GPRMC,161334,V,0322.827086,N,07623.930976,W,000.01,257.7,030398,1.2,W,N*37
$GPGGA,161335.00,0322.827084,N,07623.930976,W,1,09,0.9,986.92,M,8.74,M,,*4A
$GPVTG,138.9,T,,,000.02,N,000.04,K,A*45
$GPGSA,A,3,05,06,12,13,17,19,20,25,15,,,,2.1,0.9,1.9*3D
$GPRMC,161335,V,0322.827084,N,07623.930976,W,000.02,138.9,030398,1.2,W,N*33
$GPGGA,161336.00,0322.827084,N,07623.930975,W,1,09,0.9,986.92,M,8.74,M,,*4A
$GPVTG,352.9,T,,,000.04,N,000.07,K,A*4E
$GPGSA,A,3,05,06,12,13,17,19,20,25,15,,,,2.1,0.9,1.9*3D
$GPRMC,161336,V,0322.827084,N,07623.930975,W,000.04,352.9,030398,1.2,W,N*3B
$GPGGA,161337.00,0322.827084,N,07623.930975,W,1,09,0.9,986.92,M,8.74,M,,*4B
$GPVTG,51.1,T,,,000.05,N,000.09,K,A*79
$GPGSA,A,3,05,06,12,13,17,19,20,25,15,,,,2.1,0.9,1.9*3D
$GPRMC,161337,V,0322.827084,N,07623.930975,W,000.05,51.1,030398,1.2,W,N*03
$GPGGA,161338.00,0322.827083,N,07623.930976,W,1,09,0.9,986.91,M,8.74,M,,*43
$GPVTG,340.2,T,,,000.11,N,000.21,K,A*46
$GPGSA,A,3,05,06,12,13,17,19,20,25,15,,,,2.1,0.9,1.9*3D
$GPRMC,161338,V,0322.827083,N,07623.930976,W,000.11,340.2,030398,1.2,W,N*3D
$GPGGA,161339.00,0322.827083,N,07623.930979,W,1,09,0.9,986.90,M,8.74,M,,*4C
$GPVTG,28.6,T,,,000.06,N,000.11,K,A*7A
$GPGSA,A,3,05,06,12,13,17,19,20,25,15,,,,2.1,0.9,1.9*3D
$GPRMC,161339,V,0322.827083,N,07623.930979,W,000.06,28.6,030398,1.2,W,N*0C
$GPGGA,161340.00,0322.827083,N,07623.930982,W,1,09,0.9,986.89,M,8.74,M,,*4E
$GPVTG,110.2,T,,,000.01,N,000.02,K,A*41
$GPGSA,A,3,05,06,12,13,17,19,20,25,15,,,,2.1,0.9,1.9*3D
$GPRMC,161340,V,0322.827083,N,07623.930982,W,000.01,110.2,030398,1.2,W,N*3F
$GPGGA,161341.00,0322.827082,N,07623.930984,W,1,09,0.9,986.88,M,8.74,M,,*49
$GPVTG,13.5,T,,,000.02,N,000.03,K,A*76
$GPGSA,A,3,05,06,12,13,17,19,20,25,15,,,,2.1,0.9,1.9*3D
$GPRMC,161341,V,0322.827082,N,07623.930984,W,000.02,13.5,030398,1.2,W,N*0F
$GPGGA,161342.00,0322.827081,N,07623.930985,W,1,09,0.9,986.88,M,8.74,M,,*48
$GPVTG,238.5,T,,,000.07,N,000.13,K,A*49
$GPGSA,A,3,05,06,12,13,17,19,20,25,15,,,,2.1,0.9,1.9*3D
$GPRMC,161342,V,0322.827081,N,07623.930985,W,000.07,238.5,030398,1.2,W,N*30
$GPGGA,161343.00,0322.827081,N,07623.930986,W,1,09,0.9,986.87,M,8.74,M,,*45
$GPVTG,159.6,T,,,000.05,N,000.09,K,A*47
$GPGSA,A,3,05,06,12,13,17,19,20,25,15,,,,2.1,0.9,1.9*3D
$GPRMC,161343,V,0322.827081,N,07623.930986,W,000.05,159.6,030398,1.2,W,N*37
$GPGGA,161344.00,0322.827080,N,07623.930987,W,1,09,0.9,986.85,M,8.74,M,,*40
$GPVTG,46.7,T,,,000.01,N,000.01,K,A*75
$GPGSA,A,3,05,06,12,13,17,19,20,25,15,,,,2.1,0.9,1.9*3D
$GPRMC,161344,V,0322.827080,N,07623.930987,W,000.01,46.7,030398,1.2,W,N*0A
$GPGGA,161345.00,0322.827080,N,07623.930989,W,1,09,0.9,986.84,M,8.74,M,,*4E
$GPVTG,128.5,T,,,000.04,N,000.07,K,A*4D
$GPGSA,A,3,05,06,12,13,17,19,20,25,15,,,,2.1,0.9,1.9*3D
$GPRMC,161345,V,0322.827080,N,07623.930989,W,000.04,128.5,030398,1.2,W,N*3B
$GPGGA,161346.00,0322.827080,N,07623.930990,W,1,09,0.9,986.83,M,8.74,M,,*42
$GPVTG,173.1,T,,,000.03,N,000.05,K,A*42
$GPGSA,A,3,05,06,12,13,17,19,20,25,15,,,,2.1,0.9,1.9*3D
$GPRMC,161346,V,0322.827080,N,07623.930990,W,000.03,173.1,030398,1.2,W,N*3D
$GPGGA,161347.00,0322.827081,N,07623.930990,W,1,09,0.9,986.83,M,8.74,M,,*42
$GPVTG,356.7,T,,,000.08,N,000.15,K,A*4B
$GPGSA,A,3,05,06,12,13,17,19,20,25,15,,,,2.1,0.9,1.9*3D
$GPRMC,161347,V,0322.827081,N,07623.930990,W,000.08,356.7,030398,1.2,W,N*35
$GPGGA,161348.00,0322.827078,N,07623.930991,W,1,09,0.9,986.83,M,8.74,M,,*4A
$GPVTG,22.6,T,,,000.08,N,000.15,K,A*7A
$GPGSA,A,3,05,06,12,13,17,19,20,25,15,,,,2.1,0.9,1.9*3D
$GPRMC,161348,V,0322.827078,N,07623.930991,W,000.08,22.6,030398,1.2,W,N*0C
$GPGGA,161349.00,0322.827077,N,07623.930989,W,1,09,0.9,986.84,M,8.74,M,,*4A
$GPVTG,40.2,T,,,000.10,N,000.19,K,A*7F
$GPGSA,A,3,05,06,12,13,17,19,20,25,15,,,,2.1,0.9,1.9*3D
$GPRMC,161349,V,0322.827077,N,07623.930989,W,000.10,40.2,030398,1.2,W,N*02
$GPGGA,161350.00,0322.827075,N,07623.930988,W,1,09,0.9,986.84,M,8.74,M,,*41
$GPVTG,236.8,T,,,000.02,N,000.03,K,A*4E
$GPGSA,A,3,05,06,12,13,17,19,20,25,15,,,,2.1,0.9,1.9*3D
$GPRMC,161350,V,0322.827075,N,07623.930988,W,000.02,236.8,030398,1.2,W,N*33
$GPGGA,161351.00,0322.827075,N,07623.930987,W,1,09,0.9,986.83,M,8.74,M,,*48
$GPVTG,215.1,T,,,000.02,N,000.04,K,A*41
$GPGSA,A,3,05,06,12,13,17,19,20,25,15,,,,2.1,0.9,1.9*3D
$GPRMC,161351,V,0322.827075,N,07623.930987,W,000.02,215.1,030398,1.2,W,N*35
$GPGGA,161352.00,0322.827076,N,07623.930986,W,1,09,0.9,986.82,M,8.74,M,,*48
$GPVTG,233.8,T,,,000.03,N,000.05,K,A*4C
$GPGSA,A,3,05,06,12,13,17,19,20,25,15,,,,2.1,0.9,1.9*3D
$GPRMC,161352,V,0322.827076,N,07623.930986,W,000.03,233.8,030398,1.2,W,N*38
$GPGGA,161353.00,0322.827075,N,07623.930985,W,1,09,0.9,986.82,M,8.74,M,,*49
$GPVTG,6.9,T,,,000.02,N,000.05,K,A*48
$GPGSA,A,3,05,06,12,13,17,19,20,25,15,,,,2.1,0.9,1.9*3D
$GPRMC,161353,V,0322.827075,N,07623.930985,W,000.02,6.9,030398,1.2,W,N*3D
$GPGGA,161354.00,0322.827074,N,07623.930983,W,1,09,0.9,986.82,M,8.74,M,,*49
$GPVTG,229.9,T,,,000.04,N,000.07,K,A*43
$GPGSA,A,3,05,06,12,13,17,19,20,25,15,,,,2.1,0.9,1.9*3D
$GPRMC,161354,V,0322.827074,N,07623.930983,W,000.04,229.9,030398,1.2,W,N*34
$GPGGA,161355.00,0322.827073,N,07623.930982,W,1,09,0.9,986.82,M,8.74,M,,*4E
$GPVTG,50.8,T,,,000.03,N,000.05,K,A*7B
$GPGSA,A,3,05,06,12,13,17,19,20,25,15,,,,2.1,0.9,1.9*3D
$GPRMC,161355,V,0322.827073,N,07623.930982,W,000.03,50.8,030398,1.2,W,N*09
$GPGGA,161356.00,0322.827072,N,07623.930979,W,1,09,0.9,986.81,M,8.74,M,,*4B
$GPVTG,56.6,T,,,000.04,N,000.07,K,A*76
$GPGSA,A,3,05,06,12,13,17,19,20,25,15,,,,2.1,0.9,1.9*3D
$GPRMC,161356,V,0322.827072,N,07623.930979,W,000.04,56.6,030398,1.2,W,N*00
$GPGGA,161357.00,0322.827071,N,07623.930979,W,1,09,0.9,986.81,M,8.74,M,,*49
$GPVTG,61.8,T,,,000.06,N,000.11,K,A*79
$GPGSA,A,3,05,06,12,13,17,19,20,25,15,,,,2.1,0.9,1.9*3D
$GPRMC,161357,V,0322.827071,N,07623.930979,W,000.06,61.8,030398,1.2,W,N*0A
$GPGGA,161358.00,0322.827069,N,07623.930979,W,1,09,0.9,986.81,M,8.74,M,,*4F
$GPVTG,68.8,T,,,000.03,N,000.06,K,A*73
$GPGSA,A,3,05,06,12,13,17,19,20,25,15,,,,2.1,0.9,1.9*3D
$GPRMC,161358,V,0322.827069,N,07623.930979,W,000.03,68.8,030398,1.2,W,N*00
$GPGGA,161359.00,0322.827068,N,07623.930978,W,1,09,0.9,986.81,M,8.74,M,,*4E
$GPVTG,311.1,T,,,000.07,N,000.13,K,A*47
$GPGSA,A,3,05,06,12,13,17,19,20,25,15,,,,2.1,0.9,1.9*3D
$GPRMC,161359,V,0322.827068,N,07623.930978,W,000.07,311.1,030398,1.2,W,N*31
$GPGGA,161400.00,0322.827067,N,07623.930977,W,1,09,0.9,986.80,M,8.74,M,,*44
$GPVTG,202.6,T,,,000.03,N,000.05,K,A*40
$GPGSA,A,3,05,06,12,13,17,19,20,25,15,,,,2.1,0.9,1.9*3D
$GPRMC,161400,V,0322.827067,N,07623.930977,W,000.03,202.6,030398,1.2,W,N*3A
$GPGGA,161401.00,0322.827066,N,07623.930975,W,1,09,0.9,986.80,M,8.74,M,,*46
$GPVTG,170.2,T,,,000.09,N,000.16,K,A*4A
$GPGSA,A,3,05,06,12,13,17,19,20,25,15,,,,2.1,0.9,1.9*3D
$GPRMC,161401,V,0322.827066,N,07623.930975,W,000.09,170.2,030398,1.2,W,N*30
$GPGGA,161402.00,0322.827066,N,07623.930975,W,1,09,0.9,986.79,M,8.74,M,,*43
$GPVTG,57.0,T,,,000.08,N,000.15,K,A*7E
$GPGSA,A,3,05,06,12,13,17,19,20,25,15,,,,2.1,0.9,1.9*3D
$GPRMC,161402,V,0322.827066,N,07623.930975,W,000.08,57.0,030398,1.2,W,N*04
$GPGGA,161403.00,0322.827066,N,07623.930973,W,1,09,0.9,986.78,M,8.74,M,,*45
$GPVTG,163.6,T,,,000.04,N,000.08,K,A*4E
$GPGSA,A,3,05,06,12,13,17,19,20,25,15,,,,2.1,0.9,1.9*3D
$GPRMC,161403,V,0322.827066,N,07623.930973,W,000.04,163.6,030398,1.2,W,N*3F
$GPGGA,161404.00,0322.827066,N,07623.930971,W,1,09,0.9,986.78,M,8.74,M,,*40
$GPVTG,26.6,T,,,000.06,N,000.11,K,A*74
$GPGSA,A,3,05,06,12,13,17,19,20,25,15,,,,2.1,0.9,1.9*3D
$GPRMC,161404,V,0322.827066,N,07623.930971,W,000.06,26.6,030398,1.2,W,N*08
$GPGGA,161405.00,0322.827066,N,07623.930970,W,1,09,0.9,986.79,M,8.74,M,,*41
$GPVTG,200.2,T,,,000.05,N,000.10,K,A*44
$GPGSA,A,3,05,06,12,13,17,19,20,25,15,,,,2.1,0.9,1.9*3D
$GPRMC,161405,V,0322.827066,N,07623.930970,W,000.05,200.2,030398,1.2,W,N*39
$GPGGA,161406.00,0322.827066,N,07623.930968,W,1,09,0.9,986.79,M,8.74,M,,*4B
$GPVTG,154.7,T,,,000.05,N,000.09,K,A*4B
$GPGSA,A,3,05,06,12,13,17,19,20,25,15,,,,2.1,0.9,1.9*3D
$GPRMC,161406,V,0322.827066,N,07623.930968,W,000.05,154.7,030398,1.2,W,N*34
$GPGGA,161407.00,0322.827067,N,07623.930966,W,1,09,0.9,986.80,M,8.74,M,,*43
$GPVTG,82.3,T,,,000.05,N,000.09,K,A*75
$GPGSA,A,3,05,06,12,13,17,19,20,25,15,,,,2.1,0.9,1.9*3D
$GPRMC,161407,V,0322.827067,N,07623.930966,W,000.05,82.3,030398,1.2,W,N*04
$GPGGA,161408.00,0322.827066,N,07623.930964,W,1,09,0.9,986.80,M,8.74,M,,*4F
$GPVTG,50.6,T,,,000.02,N,000.03,K,A*72
$GPGSA,A,3,05,06,12,13,17,19,20,25,15,,,,2.1,0.9,1.9*3D
$GPRMC,161408,V,0322.827066,N,07623.930964,W,000.02,50.6,030398,1.2,W,N*05
$GPGGA,161409.00,0322.827065,N,07623.930963,W,1,09,0.9,986.80,M,8.74,M,,*4A
$GPVTG,10.0,T,,,000.05,N,000.10,K,A*75
$GPGSA,A,3,05,06,12,13,17,19,20,25,15,,,,2.1,0.9,1.9*3D
$GPRMC,161409,V,0322.827065,N,07623.930963,W,000.05,10.0,030398,1.2,W,N*05
$GPGGA,161410.00,0322.827065,N,07623.930960,W,1,09,0.9,986.81,M,8.74,M,,*40
$GPVTG,72.0,T,,,000.05,N,000.09,K,A*79
$GPGSA,A,3,05,06,12,13,17,19,20,25,15,,,,2.1,0.9,1.9*3D
$GPRMC,161410,V,0322.827065,N,07623.930960,W,000.05,72.0,030398,1.2,W,N*0A
$GPGGA,161411.00,0322.827063,N,07623.930958,W,1,09,0.9,986.80,M,8.74,M,,*4D
$GPVTG,74.7,T,,,000.04,N,000.07,K,A*77
$GPGSA,A,3,05,06,12,13,17,19,20,25,15,,,,2.1,0.9,1.9*3D
$GPRMC,161411,V,0322.827063,N,07623.930958,W,000.04,74.7,030398,1.2,W,N*06
$GPGGA,161412.00,0322.827064,N,07623.930956,W,1,09,0.9,986.79,M,8.74,M,,*41
$GPVTG,96.2,T,,,000.02,N,000.04,K,A*7B
$GPGSA,A,3,05,06,12,13,17,19,20,25,15,,,,2.1,0.9,1.9*3D
$GPRMC,161412,V,0322.827064,N,07623.930956,W,000.02,96.2,030398,1.2,W,N*03
$GPGGA,161413.00,0322.827065,N,07623.930954,W,1,09,0.9,986.78,M,8.74,M,,*42
$GPVTG,197.7,T,,,000.03,N,000.05,K,A*4E
$GPGSA,A,3,05,06,12,13,17,19,20,25,15,,,,2.1,0.9,1.9*3D
$GPRMC,161413,V,0322.827065,N,07623.930954,W,000.03,197.7,030398,1.2,W,N*35
$GPGGA,161414.00,0322.827064,N,07623.930953,W,1,09,0.9,986.78,M,8.74,M,,*43
$GPVTG,127.5,T,,,000.11,N,000.21,K,A*42
$GPGSA,A,3,05,06,12,13,17,19,20,25,15,,,,2.1,0.9,1.9*3D
$GPRMC,161414,V,0322.827064,N,07623.930953,W,000.11,127.5,030398,1.2,W,N*3E
$GPGGA,161415.00,0322.827064,N,07623.930951,W,1,09,0.9,986.78,M,8.74,M,,*40
$GPVTG,306.0,T,,,000.02,N,000.03,K,A*44
$GPGSA,A,3,05,06,12,13,17,19,20,25,15,,,,2.1,0.9,1.9*3D
$GPRMC,161415,V,0322.827064,N,07623.930951,W,000.02,306.0,030398,1.2,W,N*3B
$GPGGA,161416.00,0322.827064,N,07623.930950,W,1,09,0.9,986.78,M,8.74,M,,*42
$GPVTG,5.6,T,,,000.06,N,000.10,K,A*44
$GPGSA,A,3,05,06,12,13,17,19,20,25,15,,,,2.1,0.9,1.9*3D
$GPRMC,161416,V,0322.827064,N,07623.930950,W,000.06,5.6,030398,1.2,W,N*3B
$GPGGA,161417.00,0322.827064,N,07623.930948,W,1,09,0.9,986.79,M,8.74,M,,*4B
$GPVTG,59.2,T,,,000.03,N,000.06,K,A*7B
$GPGSA,A,3,05,06,12,13,17,19,20,25,15,,,,2.1,0.9,1.9*3D
$GPRMC,161417,V,0322.827064,N,07623.930948,W,000.03,59.2,030398,1.2,W,N*0B
$GPGGA,161418.00,0322.827066,N,07623.930946,W,1,09,0.9,986.78,M,8.74,M,,*49
$GPVTG,4.5,T,,,000.03,N,000.05,K,A*47
$GPGSA,A,3,05,06,12,13,17,19,20,25,15,,,,2.1,0.9,1.9*3D
$GPRMC,161418,V,0322.827066,N,07623.930946,W,000.03,4.5,030398,1.2,W,N*37
$GPGGA,161419.00,0322.827068,N,07623.930943,W,1,09,0.9,986.79,M,8.74,M,,*42
$GPVTG,320.0,T,,,000.08,N,000.15,K,A*4D
$GPGSA,A,3,05,06,12,13,17,19,20,25,15,,,,2.1,0.9,1.9*3D
$GPRMC,161419,V,0322.827068,N,07623.930943,W,000.08,320.0,030398,1.2,W,N*36
$GPGGA,161420.00,0322.827069,N,07623.930941,W,1,09,0.9,986.80,M,8.74,M,,*4D
$GPVTG,31.0,T,,,000.09,N,000.17,K,A*7D
$GPGSA,A,3,05,06,12,13,17,19,20,25,15,,,,2.1,0.9,1.9*3D
$GPRMC,161420,V,0322.827069,N,07623.930941,W,000.09,31.0,030398,1.2,W,N*0D
$GPGGA,161421.00,0322.827069,N,07623.930941,W,1,09,0.9,986.80,M,8.74,M,,*4C
$GPVTG,280.2,T,,,000.03,N,000.05,K,A*4E
$GPGSA,A,3,05,06,12,13,17,19,20,25,15,,,,2.1,0.9,1.9*3D
$GPRMC,161421,V,0322.827069,N,07623.930941,W,000.03,280.2,030398,1.2,W,N*3C
$GPGGA,161422.00,0322.827072,N,07623.930937,W,1,09,0.9,986.81,M,8.74,M,,*45
$GPVTG,277.5,T,,,000.04,N,000.07,K,A*44
$GPGSA,A,3,05,06,12,13,17,19,20,25,15,,,,2.1,0.9,1.9*3D
$GPRMC,161422,V,0322.827072,N,07623.930937,W,000.04,277.5,030398,1.2,W,N*3C
$GPGGA,161423.00,0322.827074,N,07623.930934,W,1,09,0.9,986.81,M,8.74,M,,*41
$GPVTG,8.6,T,,,000.09,N,000.17,K,A*41
$GPGSA,A,3,05,06,12,13,17,19,20,25,15,,,,2.1,0.9,1.9*3D
$GPRMC,161423,V,0322.827074,N,07623.930934,W,000.09,8.6,030398,1.2,W,N*3C
$GPGGA,161424.00,0322.827075,N,07623.930933,W,1,09,0.9,986.82,M,8.74,M,,*43
$GPVTG,132.0,T,,,000.06,N,000.12,K,A*45
$GPGSA,A,3,05,06,12,13,17,19,20,25,15,,,,2.1,0.9,1.9*3D
$GPRMC,161424,V,0322.827075,N,07623.930933,W,000.06,132.0,030398,1.2,W,N*3C
$GPGGA,161425.00,0322.827077,N,07623.930930,W,1,09,0.9,986.82,M,8.74,M,,*43
$GPVTG,306.2,T,,,000.05,N,000.09,K,A*4B
$GPGSA,A,3,05,06,12,13,17,19,20,25,15,,,,2.1,0.9,1.9*3D
$GPRMC,161425,V,0322.827077,N,07623.930930,W,000.05,306.2,030398,1.2,W,N*38
$GPGGA,161426.00,0322.827079,N,07623.930928,W,1,09,0.9,986.81,M,8.74,M,,*44
$GPVTG,162.5,T,,,000.07,N,000.13,K,A*45
$GPGSA,A,3,05,06,12,13,17,19,20,25,15,,,,2.1,0.9,1.9*3D
$GPRMC,161426,V,0322.827079,N,07623.930928,W,000.07,162.5,030398,1.2,W,N*39
$GPGGA,161427.00,0322.827081,N,07623.930926,W,1,09,0.9,986.81,M,8.74,M,,*4C
$GPVTG,17.2,T,,,000.03,N,000.06,K,A*71
$GPGSA,A,3,05,06,12,13,17,19,20,25,15,,,,2.1,0.9,1.9*3D
$GPRMC,161427,V,0322.827081,N,07623.930926,W,000.03,17.2,030398,1.2,W,N*01
$GPGGA,161428.00,0322.827082,N,07623.930924,W,1,09,0.9,986.82,M,8.74,M,,*41
$GPVTG,1.9,T,,,000.07,N,000.13,K,A*4D
$GPGSA,A,3,05,06,12,13,17,19,20,25,15,,,,2.1,0.9,1.9*3D
$GPRMC,161428,V,0322.827082,N,07623.930924,W,000.07,1.9,030398,1.2,W,N*37
$GPGGA,161429.00,0322.827085,N,07623.930922,W,1,09,0.9,986.81,M,8.74,M,,*42
$GPVTG,0.0,T,,,000.02,N,000.03,K,A*41
$GPGSA,A,3,05,06,12,13,17,19,20,25,15,,,,2.1,0.9,1.9*3D
$GPRMC,161429,V,0322.827085,N,07623.930922,W,000.02,0.0,030398,1.2,W,N*3A
$GPGGA,161430.00,0322.827086,N,07623.930917,W,1,09,0.9,986.83,M,8.74,M,,*4D
$GPVTG,14.9,T,,,000.08,N,000.15,K,A*70
$GPGSA,A,3,05,06,12,13,17,19,20,25,15,,,,2.1,0.9,1.9*3D
$GPRMC,161430,V,0322.827086,N,07623.930917,W,000.08,14.9,030398,1.2,W,N*01
$GPGGA,161431.00,0322.827088,N,07623.930914,W,1,09,0.9,986.82,M,8.74,M,,*40
$GPVTG,201.7,T,,,000.05,N,000.10,K,A*40
$GPGSA,A,3,05,06,12,13,17,19,20,25,15,,,,2.1,0.9,1.9*3D
$GPRMC,161431,V,0322.827088,N,07623.930914,W,000.05,201.7,030398,1.2,W,N*38
$GPGGA,161432.00,0322.827091,N,07623.930912,W,1,09,0.9,986.85,M,8.74,M,,*4A
$GPVTG,138.4,T,,,000.03,N,000.06,K,A*4B
$GPGSA,A,3,05,06,12,13,17,19,20,25,15,,,,2.1,0.9,1.9*3D
$GPRMC,161432,V,0322.827091,N,07623.930912,W,000.03,138.4,030398,1.2,W,N*39
$GPGGA,161433.00,0322.827092,N,07623.930909,W,1,09,0.9,986.84,M,8.74,M,,*43
$GPVTG,201.2,T,,,000.05,N,000.10,K,A*45
$GPGSA,A,3,05,06,12,13,17,19,20,25,15,,,,2.1,0.9,1.9*3D
$GPRMC,161433,V,0322.827092,N,07623.930909,W,000.05,201.2,030398,1.2,W,N*38
$GPGGA,161434.00,0322.827095,N,07623.930907,W,1,09,0.9,986.85,M,8.74,M,,*4C
$GPVTG,295.3,T,,,000.03,N,000.05,K,A*4B
$GPGSA,A,3,05,06,12,13,17,19,20,25,15,,,,2.1,0.9,1.9*3D
$GPRMC,161434,V,0322.827095,N,07623.930907,W,000.03,295.3,030398,1.2,W,N*3C
$GPGGA,161435.00,0322.827097,N,07623.930905,W,1,09,0.9,986.85,M,8.74,M,,*4D
$GPVTG,323.4,T,,,000.02,N,000.03,K,A*47
$GPGSA,A,3,05,06,12,13,17,19,20,25,15,,,,2.1,0.9,1.9*3D
$GPRMC,161435,V,0322.827097,N,07623.930905,W,000.02,323.4,030398,1.2,W,N*37
$GPGGA,161436.00,0322.827096,N,07623.930904,W,1,09,0.9,986.87,M,8.74,M,,*4C
$GPVTG,80.9,T,,,000.03,N,000.05,K,A*77
$GPGSA,A,3,05,06,12,13,17,19,20,25,15,,,,2.1,0.9,1.9*3D
$GPRMC,161436,V,0322.827096,N,07623.930904,W,000.03,80.9,030398,1.2,W,N*02
$GPGGA,161437.00,0322.827098,N,07623.930902,W,1,09,0.9,986.87,M,8.74,M,,*45
$GPVTG,67.2,T,,,000.04,N,000.07,K,A*70
$GPGSA,A,3,05,06,12,13,17,19,20,25,15,,,,2.1,0.9,1.9*3D
$GPRMC,161437,V,0322.827098,N,07623.930902,W,000.04,67.2,030398,1.2,W,N*0E
$GPGGA,161438.00,0322.827098,N,07623.930902,W,1,09,0.9,986.89,M,8.74,M,,*44
$GPVTG,42.0,T,,,000.05,N,000.10,K,A*72
$GPGSA,A,3,05,06,12,13,17,19,20,25,15,,,,2.1,0.9,1.9*3D
$GPRMC,161438,V,0322.827098,N,07623.930902,W,000.05,42.0,030398,1.2,W,N*05
$GPGGA,161439.00,0322.827098,N,07623.930901,W,1,09,0.9,986.91,M,8.74,M,,*4F
$GPVTG,206.5,T,,,000.04,N,000.07,K,A*42
$GPGSA,A,3,05,06,12,13,17,19,20,25,15,,,,2.1,0.9,1.9*3D
$GPRMC,161439,V,0322.827098,N,07623.930901,W,000.04,206.5,030398,1.2,W,N*31
$GPGGA,161440.00,0322.827099,N,07623.930900,W,1,09,0.9,986.91,M,8.74,M,,*41
$GPVTG,337.4,T,,,000.03,N,000.06,K,A*46
$GPGSA,A,3,05,06,12,13,17,19,20,25,15,,,,2.1,0.9,1.9*3D
$GPRMC,161440,V,0322.827099,N,07623.930900,W,000.03,337.4,030398,1.2,W,N*3A
$GPGGA,161441.00,0322.827098,N,07623.930898,W,1,09,0.9,986.94,M,8.74,M,,*44
$GPVTG,197.3,T,,,000.06,N,000.11,K,A*4A
$GPGSA,A,3,05,06,12,13,17,19,20,25,15,,,,2.1,0.9,1.9*3D
$GPRMC,161441,V,0322.827098,N,07623.930898,W,000.06,197.3,030398,1.2,W,N*30
$GPGGA,161442.00,0322.827100,N,07623.930896,W,1,09,0.9,986.94,M,8.74,M,,*49
$GPVTG,44.2,T,,,000.03,N,000.05,K,A*74
$GPGSA,A,3,05,06,12,13,17,19,20,25,15,,,,2.1,0.9,1.9*3D
$GPRMC,161442,V,0322.827100,N,07623.930896,W,000.03,44.2,030398,1.2,W,N*06
$GPGGA,161443.00,0322.827099,N,07623.930896,W,1,09,0.9,986.95,M,8.74,M,,*48
$GPVTG,208.2,T,,,000.05,N,000.10,K,A*4C
$GPGSA,A,3,05,06,12,13,17,19,20,25,15,,,,2.1,0.9,1.9*3D
$GPRMC,161443,V,0322.827099,N,07623.930896,W,000.05,208.2,030398,1.2,W,N*3A
$GPGGA,161444.00,0322.827099,N,07623.930895,W,1,09,0.9,986.96,M,8.74,M,,*4F
$GPVTG,58.1,T,,,000.02,N,000.05,K,A*7B
$GPGSA,A,3,05,06,12,13,17,19,20,25,15,,,,2.1,0.9,1.9*3D
$GPRMC,161444,V,0322.827099,N,07623.930895,W,000.02,58.1,030398,1.2,W,N*0D
$GPGGA,161445.00,0322.827100,N,07623.930892,W,1,09,0.9,986.96,M,8.74,M,,*48
$GPVTG,63.5,T,,,000.01,N,000.02,K,A*73
$GPGSA,A,3,05,06,12,13,17,19,20,25,15,,,,2.1,0.9,1.9*3D
$GPRMC,161445,V,0322.827100,N,07623.930892,W,000.01,63.5,030398,1.2,W,N*05
$GPGGA,161446.00,0322.827100,N,07623.930891,W,1,09,0.9,986.97,M,8.74,M,,*49
$GPVTG,38.7,T,,,000.09,N,000.17,K,A*73
$GPGSA,A,3,05,06,12,13,17,19,20,25,15,,,,2.1,0.9,1.9*3D
$GPRMC,161446,V,0322.827100,N,07623.930891,W,000.09,38.7,030398,1.2,W,N*01
$GPGGA,161447.00,0322.827100,N,07623.930888,W,1,09,0.9,986.99,M,8.74,M,,*4E
$GPVTG,175.0,T,,,000.09,N,000.18,K,A*43
$GPGSA,A,3,05,06,12,13,17,19,20,25,15,,,,2.1,0.9,1.9*3D
$GPRMC,161447,V,0322.827100,N,07623.930888,W,000.09,175.0,030398,1.2,W,N*37
$GPGGA,161448.00,0322.827099,N,07623.930889,W,1,09,0.9,986.99,M,8.74,M,,*41
$GPVTG,127.9,T,,,000.16,N,000.30,K,A*49
$GPGSA,A,3,05,06,12,13,17,19,20,25,15,,,,2.1,0.9,1.9*3D
$GPRMC,161448,V,0322.827099,N,07623.930889,W,000.16,127.9,030398,1.2,W,N*38
$GPGGA,161449.00,0322.827102,N,07623.930886,W,1,09,0.9,986.99,M,8.74,M,,*4C
$GPVTG,72.3,T,,,000.03,N,000.05,K,A*70
$GPGSA,A,3,05,06,12,13,17,19,20,25,15,,,,2.1,0.9,1.9*3D
$GPRMC,161449,V,0322.827102,N,07623.930886,W,000.03,72.3,030398,1.2,W,N*0A
$GPGGA,161450.00,0322.827103,N,07623.930887,W,1,09,0.9,987.01,M,8.74,M,,*44
$GPVTG,31.0,T,,,000.03,N,000.06,K,A*77
$GPGSA,A,3,05,06,12,13,17,19,20,25,15,,,,2.1,0.9,1.9*3D
$GPRMC,161450,V,0322.827103,N,07623.930887,W,000.03,31.0,030398,1.2,W,N*06
$GPGGA,161451.00,0322.827103,N,07623.930886,W,1,09,0.9,987.00,M,8.74,M,,*45
$GPVTG,48.0,T,,,000.03,N,000.06,K,A*79
$GPGSA,A,3,05,06,12,13,17,19,20,25,15,,,,2.1,0.9,1.9*3D
$GPRMC,161451,V,0322.827103,N,07623.930886,W,000.03,48.0,030398,1.2,W,N*08
$GPGGA,161452.00,0322.827104,N,07623.930884,W,1,09,0.9,987.01,M,8.74,M,,*42
$GPVTG,98.6,T,,,000.02,N,000.03,K,A*76
$GPGSA,A,3,05,06,12,13,17,19,20,25,15,,,,2.1,0.9,1.9*3D
$GPRMC,161452,V,0322.827104,N,07623.930884,W,000.02,98.6,030398,1.2,W,N*04
$GPGGA,161453.00,0322.827105,N,07623.930884,W,1,09,0.9,987.02,M,8.74,M,,*41
$GPVTG,195.3,T,,,000.04,N,000.08,K,A*42
$GPGSA,A,3,05,06,12,13,17,19,20,25,15,,,,2.1,0.9,1.9*3D
$GPRMC,161453,V,0322.827105,N,07623.930884,W,000.04,195.3,030398,1.2,W,N*3B
$GPGGA,161454.00,0322.827106,N,07623.930885,W,1,09,0.9,987.02,M,8.74,M,,*44
$GPVTG,160.7,T,,,000.09,N,000.17,K,A*4F
$GPGSA,A,3,05,06,12,13,17,19,20,25,15,,,,2.1,0.9,1.9*3D
$GPRMC,161454,V,0322.827106,N,07623.930885,W,000.09,160.7,030398,1.2,W,N*3D
$GPGGA,161455.00,0322.827106,N,07623.930884,W,1,09,0.9,987.03,M,8.74,M,,*45
$GPVTG,18.0,T,,,000.04,N,000.07,K,A*7A
$GPGSA,A,3,05,06,12,13,17,19,20,25,15,,,,2.1,0.9,1.9*3D
$GPRMC,161455,V,0322.827106,N,07623.930884,W,000.04,18.0,030398,1.2,W,N*09
$GPGGA,161456.00,0322.827105,N,07623.930884,W,1,09,0.9,987.03,M,8.74,M,,*45
$GPVTG,169.5,T,,,000.08,N,000.14,K,A*46
$GPGSA,A,3,05,06,12,13,17,19,20,25,15,,,,2.1,0.9,1.9*3D
$GPRMC,161456,V,0322.827105,N,07623.930884,W,000.08,169.5,030398,1.2,W,N*37
$GPGGA,161457.00,0322.827107,N,07623.930884,W,1,09,0.9,987.03,M,8.74,M,,*46
$GPVTG,262.3,T,,,000.04,N,000.08,K,A*49
$GPGSA,A,3,05,06,12,13,17,19,20,25,15,,,,2.1,0.9,1.9*3D
$GPRMC,161457,V,0322.827107,N,07623.930884,W,000.04,262.3,030398,1.2,W,N*36
$GPGGA,161458.00,0322.827108,N,07623.930885,W,1,09,0.9,987.04,M,8.74,M,,*40
$GPVTG,212.3,T,,,000.06,N,000.11,K,A*44
$GPGSA,A,3,05,06,12,13,17,19,20,25,15,,,,2.1,0.9,1.9*3D
$GPRMC,161458,V,0322.827108,N,07623.930885,W,000.06,212.3,030398,1.2,W,N*32
$GPGGA,161459.00,0322.827108,N,07623.930886,W,1,09,0.9,987.04,M,8.74,M,,*42
$GPVTG,99.4,T,,,000.03,N,000.06,K,A*71
$GPGSA,A,3,05,06,12,13,17,19,20,25,15,,,,2.1,0.9,1.9*3D
$GPRMC,161459,V,0322.827108,N,07623.930886,W,000.03,99.4,030398,1.2,W,N*03
$GPGGA,161500.00,0322.827109,N,07623.930888,W,1,09,0.9,987.05,M,8.74,M,,*41
$GPVTG,73.3,T,,,000.02,N,000.04,K,A*71
$GPGSA,A,3,05,06,12,13,17,19,20,25,15,,,,2.1,0.9,1.9*3D
$GPRMC,161500,V,0322.827109,N,07623.930888,W,000.02,73.3,030398,1.2,W,N*03
$GPGGA,161501.00,0322.827110,N,07623.930889,W,1,09,0.9,987.06,M,8.74,M,,*4A
$GPVTG,10.2,T,,,000.06,N,000.11,K,A*75
$GPGSA,A,3,05,06,12,13,17,19,20,25,15,,,,2.1,0.9,1.9*3D
$GPRMC,161501,V,0322.827110,N,07623.930889,W,000.06,10.2,030398,1.2,W,N*0B
$GPGGA,161502.00,0322.827111,N,07623.930891,W,1,09,0.9,987.07,M,8.74,M,,*40
$GPVTG,3.6,T,,,000.17,N,000.31,K,A*41
$GPGSA,A,3,05,06,12,13,17,19,20,25,15,,,,2.1,0.9,1.9*3D
$GPRMC,161502,V,0322.827111,N,07623.930891,W,000.17,3.6,030398,1.2,W,N*36
$GPGGA,161503.00,0322.827109,N,07623.930891,W,1,09,0.9,987.07,M,8.74,M,,*48
$GPVTG,224.8,T,,,000.04,N,000.07,K,A*4F
$GPGSA,A,3,05,06,12,13,17,19,20,25,15,,,,2.1,0.9,1.9*3D
$GPRMC,161503,V,0322.827109,N,07623.930891,W,000.04,224.8,030398,1.2,W,N*35
$GPGGA,161504.00,0322.827108,N,07623.930893,W,1,09,0.9,987.08,M,8.74,M,,*43
$GPVTG,300.3,T,,,000.07,N,000.13,K,A*45
$GPGSA,A,3,05,06,12,13,17,19,20,25,15,,,,2.1,0.9,1.9*3D
$GPRMC,161504,V,0322.827108,N,07623.930893,W,000.07,300.3,030398,1.2,W,N*3E
$GPGGA,161505.00,0322.827108,N,07623.930894,W,1,09,0.9,987.09,M,8.74,M,,*44
$GPVTG,101.9,T,,,000.03,N,000.05,K,A*4F
$GPGSA,A,3,05,06,12,13,17,19,20,25,15,,,,2.1,0.9,1.9*3D
$GPRMC,161505,V,0322.827108,N,07623.930894,W,000.03,101.9,030398,1.2,W,N*35
$GPGGA,161506.00,0322.827107,N,07623.930896,W,1,09,0.9,987.10,M,8.74,M,,*42
$GPVTG,227.3,T,,,000.02,N,000.04,K,A*42
$GPGSA,A,3,05,06,12,13,17,19,20,25,15,,,,2.1,0.9,1.9*3D
$GPRMC,161506,V,0322.827107,N,07623.930896,W,000.02,227.3,030398,1.2,W,N*37
$GPGGA,161507.00,0322.827106,N,07623.930897,W,1,09,0.9,987.10,M,8.74,M,,*43
$GPVTG,48.5,T,,,000.06,N,000.11,K,A*7F
$GPGSA,A,3,05,06,12,13,17,19,20,25,15,,,,2.1,0.9,1.9*3D
$GPRMC,161507,V,0322.827106,N,07623.930897,W,000.06,48.5,030398,1.2,W,N*0F
$GPGGA,161508.00,0322.827104,N,07623.930898,W,1,09,0.9,987.11,M,8.74,M,,*40
$GPVTG,168.9,T,,,000.01,N,000.02,K,A*45
$GPGSA,A,3,05,06,12,13,17,19,20,25,15,,,,2.1,0.9,1.9*3D
$GPRMC,161508,V,0322.827104,N,07623.930898,W,000.01,168.9,030398,1.2,W,N*35
$GPGGA,161509.00,0322.827104,N,07623.930898,W,1,09,0.9,987.12,M,8.74,M,,*42
$GPVTG,25.4,T,,,000.04,N,000.07,K,A*70
$GPGSA,A,3,05,06,12,13,17,19,20,25,15,,,,2.1,0.9,1.9*3D
$GPRMC,161509,V,0322.827104,N,07623.930898,W,000.04,25.4,030398,1.2,W,N*04
$GPGGA,161510.00,0322.827103,N,07623.930899,W,1,09,0.9,987.13,M,8.74,M,,*4D
$GPVTG,67.8,T,,,000.02,N,000.04,K,A*7F
$GPGSA,A,3,05,06,12,13,17,19,20,25,15,,,,2.1,0.9,1.9*3D
$GPRMC,161510,V,0322.827103,N,07623.930899,W,000.02,67.8,030398,1.2,W,N*06
$GPGGA,161511.00,0322.827102,N,07623.930905,W,1,09,0.9,987.14,M,8.74,M,,*4E
$GPVTG,236.1,T,,,000.05,N,000.09,K,A*4A
$GPGSA,A,3,05,06,12,13,17,19,20,25,15,,,,2.1,0.9,1.9*3D
$GPRMC,161511,V,0322.827102,N,07623.930905,W,000.05,236.1,030398,1.2,W,N*3A
$GPGGA,161512.00,0322.827101,N,07623.930905,W,1,09,0.9,987.13,M,8.74,M,,*49
$GPVTG,251.3,T,,,000.04,N,000.07,K,A*46
$GPGSA,A,3,05,06,12,13,17,19,20,25,15,,,,2.1,0.9,1.9*3D
$GPRMC,161512,V,0322.827101,N,07623.930905,W,000.04,251.3,030398,1.2,W,N*38
$GPGGA,161513.00,0322.827099,N,07623.930908,W,1,09,0.9,987.14,M,8.74,M,,*42
$GPVTG,285.1,T,,,000.01,N,000.02,K,A*4D
$GPGSA,A,3,05,06,12,13,17,19,20,25,15,,,,2.1,0.9,1.9*3D
$GPRMC,161513,V,0322.827099,N,07623.930908,W,000.01,285.1,030398,1.2,W,N*3A
$GPGGA,161514.00,0322.827098,N,07623.930910,W,1,09,0.9,987.14,M,8.74,M,,*4D
$GPVTG,100.6,T,,,000.06,N,000.12,K,A*42
$GPGSA,A,3,05,06,12,13,17,19,20,25,15,,,,2.1,0.9,1.9*3D
$GPRMC,161514,V,0322.827098,N,07623.930910,W,000.06,100.6,030398,1.2,W,N*3B
$GPGGA,161515.00,0322.827096,N,07623.930912,W,1,09,0.9,987.15,M,8.74,M,,*41
$GPVTG,68.7,T,,,000.07,N,000.12,K,A*7D
$GPGSA,A,3,05,06,12,13,17,19,20,25,15,,,,2.1,0.9,1.9*3D
$GPRMC,161515,V,0322.827096,N,07623.930912,W,000.07,68.7,030398,1.2,W,N*09
$GPGGA,161516.00,0322.827095,N,07623.930914,W,1,09,0.9,987.16,M,8.74,M,,*44
$GPVTG,90.0,T,,,000.02,N,000.04,K,A*7F
$GPGSA,A,3,05,06,12,13,17,19,20,25,15,,,,2.1,0.9,1.9*3D
$GPRMC,161516,V,0322.827095,N,07623.930914,W,000.02,90.0,030398,1.2,W,N*0A
$GPGGA,161517.00,0322.827093,N,07623.930916,W,1,09,0.9,987.16,M,8.74,M,,*41
$GPVTG,107.6,T,,,000.06,N,000.12,K,A*45
$GPGSA,A,3,05,06,12,13,17,19,20,25,15,,,,2.1,0.9,1.9*3D
$GPRMC,161517,V,0322.827093,N,07623.930916,W,000.06,107.6,030398,1.2,W,N*32
$GPGGA,161518.00,0322.827092,N,07623.930918,W,1,09,0.9,987.16,M,8.74,M,,*41
$GPVTG,325.6,T,,,000.08,N,000.14,K,A*4F
$GPGSA,A,3,05,06,12,13,17,19,20,25,15,,,,2.1,0.9,1.9*3D
$GPRMC,161518,V,0322.827092,N,07623.930918,W,000.08,325.6,030398,1.2,W,N*3E
$GPGGA,161519.00,0322.827090,N,07623.930918,W,1,09,0.9,987.17,M,8.74,M,,*43
$GPVTG,128.1,T,,,000.05,N,000.09,K,A*46
$GPGSA,A,3,05,06,12,13,17,19,20,25,15,,,,2.1,0.9,1.9*3D
$GPRMC,161519,V,0322.827090,N,07623.930918,W,000.05,128.1,030398,1.2,W,N*38
$GPGGA,161520.00,0322.827088,N,07623.930920,W,1,09,0.9,987.18,M,8.74,M,,*44
$GPVTG,198.5,T,,,000.03,N,000.06,K,A*40
$GPGSA,A,3,05,06,12,13,17,19,20,25,15,,,,2.1,0.9,1.9*3D
$GPRMC,161520,V,0322.827088,N,07623.930920,W,000.03,198.5,030398,1.2,W,N*39
$GPGGA,161521.00,0322.827088,N,07623.930920,W,1,09,0.9,987.18,M,8.74,M,,*45
$GPVTG,76.9,T,,,000.08,N,000.14,K,A*75
$GPGSA,A,3,05,06,12,13,17,19,20,25,15,,,,2.1,0.9,1.9*3D
$GPRMC,161521,V,0322.827088,N,07623.930920,W,000.08,76.9,030398,1.2,W,N*0E
$GPGGA,161522.00,0322.827088,N,07623.930922,W,1,09,0.9,987.18,M,8.74,M,,*44
$GPVTG,207.1,T,,,000.03,N,000.06,K,A*41
$GPGSA,A,3,05,06,12,13,17,19,20,25,15,,,,2.1,0.9,1.9*3D
$GPRMC,161522,V,0322.827088,N,07623.930922,W,000.03,207.1,030398,1.2,W,N*38
$GPGGA,161523.00,0322.827088,N,07623.930923,W,1,09,0.9,987.18,M,8.74,M,,*44
$GPVTG,322.0,T,,,000.04,N,000.07,K,A*40
$GPGSA,A,3,05,06,12,13,17,19,20,25,15,,,,2.1,0.9,1.9*3D
$GPRMC,161523,V,0322.827088,N,07623.930923,W,000.04,322.0,030398,1.2,W,N*38
