====
$GPGSA,A,3,02,29,15,21,24,25,14,13,12,05,18,,1.4,0.7,1.2*34
$GPRMC,162820.000,A,0320.7916,N,07629.5785,W,0.04,152.22,180115,,,A*70
$GPGGA,162821.000,0320.7916,N,07629.5785,W,1,11,0.7,985.8,M,8.9,M,,0000*77
$GPGSA,A,3,02,29,15,21,24,25,14,13,12,05,18,,1.4,0.7,1.2*34
$GPRMC,162821.000,A,0320.7916,N,07629.5785,W,0.04,155.80,180115,,,A*7E
$GPGGA,162822.000,0320.7916,N,07629.5785,W,1,11,0.7,985.8,M,8.9,M,,0000*74
$GPGSA,A,3,02,29,15,21,24,25,14,13,12,05,18,,1.4,0.7,1.2*34
$GPRMC,162822.000,A,0320.7916,N,07629.5785,W,0.04,139.35,180115,,,A*79
$GPGGA,162823.000,0320.7916,N,07629.5785,W,1,11,0.7,985.8,M,8.9,M,,0000*75
$GPGSA,A,3,02,29,15,21,24,25,14,13,12,05,18,,1.4,0.7,1.2*34
$GPRMC,162823.000,A,0320.7916,N,07629.5785,W,0.04,152.69,180115,,,A*7C
$GPGGA,162824.000,0320.7916,N,07629.5785,W,1,11,0.7,985.8,M,8.9,M,,0000*72
$GPGSA,A,3,02,29,15,21,24,25,14,13,12,05,18,,1.4,0.7,1.2*34
$GPGSV,3,1,11,24,59,125,46,29,55,233,43,15,40,006,45,21,25,334,38*77
$GPGSV,3,2,11,02,18,128,46,18,15,315,28,12,15,161,33,25,15,199,37*7D
$GPGSV,3,3,11,14,14,231,32,13,08,029,40,05,07,065,46*4E
$GPRMC,162824.000,A,0320.7916,N,07629.5785,W,0.04,153.21,180115,,,A*76
$GPGGA,162825.000,0320.7916,N,07629.5785,W,1,11,0.7,985.9,M,8.9,M,,0000*72
$GPGSA,A,3,02,29,15,21,24,25,14,13,12,05,18,,1.4,0.7,1.2*34
$GPRMC,162825.000,A,0320.7916,N,07629.5785,W,0.05,145.16,180115,,,A*75
$GPGGA,162826.000,0320.7916,N,07629.5785,W,1,11,0.7,985.9,M,8.9,M,,0000*71
$GPGSA,A,3,02,29,15,21,24,25,14,13,12,05,18,,1.4,0.7,1.2*34
$GPRMC,162826.000,A,0320.7916,N,07629.5785,W,0.05,141.65,180115,,,A*76
$GPGGA,162827.000,0320.7916,N,07629.5785,W,1,11,0.7,985.9,M,8.9,M,,0000*70
$GPGSA,A,3,02,29,15,21,24,25,14,13,12,05,18,,1.4,0.7,1.2*34
$GPRMC,162827.000,A,0320.7916,N,07629.5785,W,0.05,150.30,180115,,,A*77
$GPGGA,162828.000,0320.7916,N,07629.5785,W,1,11,0.7,985.9,M,8.9,M,,0000*7F
$GPGSA,A,3,02,29,15,21,24,25,14,13,12,05,18,,1.4,0.7,1.2*34
$GPRMC,162828.000,A,0320.7916,N,07629.5785,W,0.05,144.19,180115,,,A*76
$GPGGA,162829.000,0320.7916,N,07629.5785,W,1,11,0.7,985.9,M,8.9,M,,0000*7E
$GPGSA,A,3,02,29,15,21,24,25,14,13,12,05,18,,1.4,0.7,1.2*34
$GPGSV,3,1,11,24,59,125,46,29,55,233,43,15,40,006,45,21,25,334,39*76
$GPGSV,3,2,11,02,18,128,46,18,15,315,21,12,15,161,34,25,15,199,37*73
$GPGSV,3,3,11,14,14,231,32,13,08,029,40,05,07,065,46*4E
$GPRMC,162829.000,A,0320.7916,N,07629.5785,W,0.06,134.09,180115,,,A*72
$GPGGA,162830.000,0320.7916,N,07629.5785,W,1,11,0.7,985.9,M,8.9,M,,0000*76
$GPGSA,A,3,02,29,15,21,24,25,14,13,12,05,18,,1.4,0.7,1.2*34
$GPRMC,162830.000,A,0320.7916,N,07629.5785,W,0.07,127.78,180115,,,A*7F
$GPGGA,162831.000,0320.7916,N,07629.5785,W,1,11,0.7,986.0,M,8.9,M,,0000*7D
$GPGSA,A,3,02,29,15,21,24,25,14,13,12,05,18,,1.4,0.7,1.2*34
$GPRMC,162831.000,A,0320.7916,N,07629.5785,W,0.06,129.42,180115,,,A*78
$GPGGA,162832.000,0320.7916,N,07629.5785,W,1,11,0.7,986.0,M,8.9,M,,0000*7E
$GPGSA,A,3,02,29,15,21,24,25,14,13,12,05,18,,1.4,0.7,1.2*34
$GPRMC,162832.000,A,0320.7916,N,07629.5785,W,0.06,134.97,180115,,,A*7F
$GPGGA,162833.000,0320.7916,N,07629.5785,W,1,11,0.7,986.0,M,8.9,M,,0000*7F
$GPGSA,A,3,02,29,15,21,24,25,14,13,12,05,18,,1.4,0.7,1.2*34
$GPRMC,162833.000,A,0320.7916,N,07629.5785,W,0.05,136.16,180115,,,A*76
$GPGGA,162834.000,0320.7916,N,07629.5785,W,1,11,0.7,986.0,M,8.9,M,,0000*78
$GPGSA,A,3,02,29,15,21,24,25,14,13,12,05,18,,1.4,0.7,1.2*34
$GPGSV,3,1,11,24,59,125,46,29,55,233,43,15,40,006,45,21,25,334,39*76
$GPGSV,3,2,11,02,18,128,46,18,15,315,22,12,15,161,34,25,15,199,37*70
$GPGSV,3,3,11,14,14,231,33,13,08,029,40,05,07,065,46*4F
$GPRMC,162834.000,A,0320.7916,N,07629.5785,W,0.05,137.38,180115,,,A*7C
$GPGGA,162835.000,0320.7916,N,07629.5785,W,1,11,0.7,986.0,M,8.9,M,,0000*79
$GPGSA,A,3,02,29,15,21,24,25,14,13,12,05,18,,1.4,0.7,1.2*34
$GPRMC,162835.000,A,0320.7916,N,07629.5785,W,0.07,133.18,180115,,,A*79
$GPGGA,162836.000,0320.7916,N,07629.5785,W,1,11,0.7,986.0,M,8.9,M,,0000*7A
$GPGSA,A,3,02,29,15,21,24,25,14,13,12,05,18,,1.4,0.7,1.2*34
$GPRMC,162836.000,A,0320.7916,N,07629.5785,W,0.06,131.66,180115,,,A*70
$GPGGA,162837.000,0320.7916,N,07629.5785,W,1,11,0.7,986.1,M,8.9,M,,0000*7A
$GPGSA,A,3,02,29,15,21,24,25,14,13,12,05,18,,1.4,0.7,1.2*34
$GPRMC,162837.000,A,0320.7916,N,07629.5785,W,0.06,141.93,180115,,,A*7C
$GPGGA,162838.000,0320.7916,N,07629.5785,W,1,11,0.7,986.1,M,8.9,M,,0000*75
$GPGSA,A,3,02,29,15,21,24,25,14,13,12,05,18,,1.4,0.7,1.2*34
$GPRMC,162838.000,A,0320.7916,N,07629.5785,W,0.07,128.78,180115,,,A*78
$GPGGA,162839.000,0320.7916,N,07629.5785,W,1,11,0.7,986.1,M,8.9,M,,0000*74
$GPGSA,A,3,02,29,15,21,24,25,14,13,12,05,18,,1.4,0.7,1.2*34
$GPGSV,3,1,11,24,59,125,47,29,55,233,44,15,40,006,45,21,25,334,39*70
$GPGSV,3,2,11,02,18,128,47,18,15,315,30,12,15,161,35,25,15,199,38*7C
$GPGSV,3,3,11,14,14,231,33,13,08,029,39,05,07,065,46*41
$GPRMC,162839.000,A,0320.7916,N,07629.5785,W,0.05,142.78,180115,,,A*77
$GPGGA,162840.000,0320.7916,N,07629.5785,W,1,11,0.7,986.1,M,8.9,M,,0000*7A
$GPGSA,A,3,02,29,15,21,24,25,14,13,12,05,18,,1.4,0.7,1.2*34
$GPRMC,162840.000,A,0320.7916,N,07629.5785,W,0.05,136.26,180115,,,A*71
$GPGGA,162841.000,0320.7916,N,07629.5785,W,1,11,0.7,986.1,M,8.9,M,,0000*7B
$GPGSA,A,3,02,29,15,21,24,25,14,13,12,05,18,,1.4,0.7,1.2*34
$GPRMC,162841.000,A,0320.7916,N,07629.5785,W,0.05,140.98,180115,,,A*74
$GPGGA,162842.000,0320.7916,N,07629.5785,W,1,11,0.7,986.1,M,8.9,M,,0000*78
$GPGSA,A,3,02,29,15,21,24,25,14,13,12,05,18,,1.4,0.7,1.2*34
$GPRMC,162842.000,A,0320.7916,N,07629.5785,W,0.05,134.79,180115,,,A*7B
$GPGGA,162843.000,0320.7916,N,07629.5785,W,1,11,0.7,986.1,M,8.9,M,,0000*79
$GPGSA,A,3,02,29,15,21,24,25,14,13,12,05,18,,1.4,0.7,1.2*34
$GPRMC,162843.000,A,0320.7916,N,07629.5785,W,0.05,141.83,180115,,,A*7D
$GPGGA,162844.000,0320.7916,N,07629.5785,W,1,11,0.7,986.2,M,8.9,M,,0000*7D
$GPGSA,A,3,02,29,15,21,24,25,14,13,12,05,18,,1.4,0.7,1.2*34
$GPGSV,3,1,11,24,59,125,47,29,55,233,43,15,40,006,45,21,25,334,39*77
$GPGSV,3,2,11,02,18,128,47,18,15,315,31,12,15,161,35,25,15,199,37*72
$GPGSV,3,3,11,14,14,231,34,13,08,029,39,05,07,065,47*47
$GPRMC,162844.000,A,0320.7916,N,07629.5785,W,0.05,143.97,180115,,,A*7D
$GPGGA,162845.000,0320.7916,N,07629.5785,W,1,11,0.7,986.2,M,8.9,M,,0000*7C
$GPGSA,A,3,02,29,15,21,24,25,14,13,12,05,18,,1.4,0.7,1.2*34
$GPRMC,162845.000,A,0320.7916,N,07629.5785,W,0.05,131.73,180115,,,A*73
$GPGGA,162846.000,0320.7916,N,07629.5785,W,1,11,0.7,986.2,M,8.9,M,,0000*7F
$GPGSA,A,3,02,29,15,21,24,25,14,13,12,05,18,,1.4,0.7,1.2*34
$GPRMC,162846.000,A,0320.7916,N,07629.5785,W,0.05,131.26,180115,,,A*70
$GPGGA,162847.000,0320.7916,N,07629.5785,W,1,11,0.7,986.2,M,8.9,M,,0000*7E
$GPGSA,A,3,02,29,15,21,24,25,14,13,12,05,18,,1.4,0.7,1.2*34
$GPRMC,162847.000,A,0320.7916,N,07629.5785,W,0.05,135.80,180115,,,A*79
$GPGGA,162848.000,0320.7916,N,07629.5785,W,1,11,0.7,986.2,M,8.9,M,,0000*71
$GPGSA,A,3,02,29,15,21,24,25,14,13,12,05,18,,1.4,0.7,1.2*34
$GPRMC,162848.000,A,0320.7916,N,07629.5785,W,0.05,136.01,180115,,,A*7C
$GPGGA,162849.000,0320.7916,N,07629.5785,W,1,11,0.7,986.2,M,8.9,M,,0000*70
$GPGSA,A,3,02,29,15,21,24,25,14,13,12,05,18,,1.4,0.7,1.2*34
$GPGSV,3,1,11,24,60,124,47,29,55,233,43,15,40,006,45,21,25,334,39*7C
$GPGSV,3,2,11,02,18,128,47,18,15,315,28,12,15,161,36,25,15,198,38*77
$GPGSV,3,3,11,14,14,231,34,13,08,029,39,05,07,065,46*46
$GPRMC,162849.000,A,0320.7916,N,07629.5785,W,0.06,129.36,180115,,,A*74
$GPGGA,162850.000,0320.7916,N,07629.5785,W,1,11,0.7,986.3,M,8.9,M,,0000*79
$GPGSA,A,3,02,29,15,21,24,25,14,13,12,05,18,,1.4,0.7,1.2*34
$GPRMC,162850.000,A,0320.7916,N,07629.5785,W,0.05,134.82,180115,,,A*7C
$GPGGA,162851.000,0320.7916,N,07629.5785,W,1,11,0.7,986.3,M,8.9,M,,0000*78
$GPGSA,A,3,02,29,15,21,24,25,14,13,12,05,18,,1.4,0.7,1.2*34
$GPRMC,162851.000,A,0320.7916,N,07629.5785,W,0.05,136.72,180115,,,A*70
$GPGGA,162852.000,0320.7916,N,07629.5785,W,1,11,0.7,986.3,M,8.9,M,,0000*7B
$GPGSA,A,3,02,29,15,21,24,25,14,13,12,05,18,,1.4,0.7,1.2*34
$GPRMC,162852.000,A,0320.7916,N,07629.5785,W,0.04,127.04,180115,,,A*73
$GPGGA,162853.000,0320.7916,N,07629.5785,W,1,11,0.7,986.3,M,8.9,M,,0000*7A
$GPGSA,A,3,02,29,15,21,24,25,14,13,12,05,18,,1.4,0.7,1.2*34
$GPRMC,162853.000,A,0320.7916,N,07629.5785,W,0.05,137.54,180115,,,A*77
$GPGGA,162854.000,0320.7916,N,07629.5785,W,1,11,0.7,986.3,M,8.9,M,,0000*7D
$GPGSA,A,3,02,29,15,21,24,25,14,13,12,05,18,,1.4,0.7,1.2*34
$GPGSV,3,1,11,24,60,124,47,29,55,233,43,15,40,006,45,21,25,334,38*7D
$GPGSV,3,2,11,02,18,128,47,18,15,315,32,12,15,161,37,25,15,198,38*7D
$GPGSV,3,3,11,14,14,231,34,13,08,029,39,05,07,065,46*46
$GPRMC,162854.000,A,0320.7916,N,07629.5785,W,0.05,138.84,180115,,,A*72
$GPGGA,162855.000,0320.7916,N,07629.5785,W,1,11,0.7,986.3,M,8.9,M,,0000*7C
$GPGSA,A,3,02,29,15,21,24,25,14,13,12,05,18,,1.4,0.7,1.2*34
$GPRMC,162855.000,A,0320.7916,N,07629.5785,W,0.03,125.66,180115,,,A*75
$GPGGA,162856.000,0320.7916,N,07629.5785,W,1,11,0.7,986.4,M,8.9,M,,0000*78
$GPGSA,A,3,02,29,15,21,24,25,14,13,12,05,18,,1.4,0.7,1.2*34
$GPRMC,162856.000,A,0320.7916,N,07629.5785,W,0.06,142.15,180115,,,A*76
$GPGGA,162857.000,0320.7916,N,07629.5785,W,1,11,0.7,986.4,M,8.9,M,,0000*79
$GPGSA,A,3,02,29,15,21,24,25,14,13,12,05,18,,1.4,0.7,1.2*34
$GPRMC,162857.000,A,0320.7916,N,07629.5785,W,0.04,126.59,180115,,,A*7F
$GPGGA,162858.000,0320.7917,N,07629.5785,W,1,11,0.7,986.4,M,8.9,M,,0000*77
$GPGSA,A,3,02,29,15,21,24,25,14,13,12,05,18,,1.4,0.7,1.2*34
$GPRMC,162858.000,A,0320.7917,N,07629.5785,W,0.04,141.53,180115,,,A*7A
$GPGGA,162859.000,0320.7917,N,07629.5785,W,1,11,0.7,986.4,M,8.9,M,,0000*76
$GPGSA,A,3,02,29,15,21,24,25,14,13,12,05,18,,1.4,0.7,1.2*34
$GPGSV,3,1,11,24,60,124,47,29,55,233,43,15,40,006,45,21,25,334,38*7D
$GPGSV,3,2,11,02,18,128,48,18,15,315,32,12,15,161,36,25,15,198,38*73
$GPGSV,3,3,11,14,14,231,35,13,08,029,39,05,07,065,46*47
$GPRMC,162859.000,A,0320.7917,N,07629.5785,W,0.05,136.85,180115,,,A*71
$GPGGA,162900.000,0320.7917,N,07629.5785,W,1,11,0.7,986.4,M,8.9,M,,0000*7B
$GPGSA,A,3,02,29,15,21,24,25,14,13,12,05,18,,1.4,0.7,1.2*34
$GPRMC,162900.000,A,0320.7917,N,07629.5785,W,0.04,135.62,180115,,,A*77
$GPGGA,162901.000,0320.7917,N,07629.5785,W,1,11,0.7,986.4,M,8.9,M,,0000*7A
$GPGSA,A,3,02,29,15,21,24,25,14,13,12,05,18,,1.4,0.7,1.2*34
$GPRMC,162901.000,A,0320.7917,N,07629.5785,W,0.04,152.31,180115,,,A*71
$GPGGA,162902.000,0320.7917,N,07629.5785,W,1,11,0.7,986.5,M,8.9,M,,0000*78
$GPGSA,A,3,02,29,15,21,24,25,14,13,12,05,18,,1.4,0.7,1.2*34
$GPRMC,162902.000,A,0320.7917,N,07629.5785,W,0.05,134.33,180115,,,A*71
$GPGGA,162903.000,0320.7917,N,07629.5785,W,1,11,0.7,986.5,M,8.9,M,,0000*79
$GPGSA,A,3,02,29,15,21,24,25,14,13,12,05,18,,1.4,0.7,1.2*34
$GPRMC,162903.000,A,0320.7917,N,07629.5785,W,0.04,140.95,180115,,,A*7E
$GPGGA,162904.000,0320.7917,N,07629.5785,W,1,11,0.7,986.5,M,8.9,M,,0000*7E
$GPGSA,A,3,02,29,15,21,24,25,14,13,12,05,18,,1.4,0.7,1.2*34
$GPGSV,3,1,11,24,60,124,47,29,55,233,43,15,40,006,45,21,25,334,38*7D
$GPGSV,3,2,11,02,18,128,47,18,15,315,32,12,15,161,37,25,15,198,38*7D
$GPGSV,3,3,11,14,14,231,35,13,08,029,39,05,07,065,46*47
$GPRMC,162904.000,A,0320.7917,N,07629.5785,W,0.04,134.66,180115,,,A*76
$GPGGA,162905.000,0320.7917,N,07629.5785,W,1,11,0.7,986.5,M,8.9,M,,0000*7F
$GPGSA,A,3,02,29,15,21,24,25,14,13,12,05,18,,1.4,0.7,1.2*34
$GPRMC,162905.000,A,0320.7917,N,07629.5785,W,0.05,140.45,180115,,,A*74
$GPGGA,162906.000,0320.7917,N,07629.5785,W,1,11,0.7,986.5,M,8.9,M,,0000*7C
$GPGSA,A,3,02,29,15,21,24,25,14,13,12,05,18,,1.4,0.7,1.2*34
$GPRMC,162906.000,A,0320.7917,N,07629.5785,W,0.04,144.93,180115,,,A*79
$GPGGA,162907.000,0320.7917,N,07629.5785,W,1,11,0.7,986.5,M,8.9,M,,0000*7D
$GPGSA,A,3,02,29,15,21,24,25,14,13,12,05,18,,1.4,0.7,1.2*34
$GPRMC,162907.000,A,0320.7917,N,07629.5785,W,0.04,135.07,180115,,,A*73
$GPGGA,162908.000,0320.7917,N,07629.5785,W,1,11,0.7,986.5,M,8.9,M,,0000*72
$GPGSA,A,3,02,29,15,21,24,25,14,13,12,05,18,,1.4,0.7,1.2*34
$GPRMC,162908.000,A,0320.7917,N,07629.5785,W,0.04,135.55,180115,,,A*7B
$GPGGA,162909.000,0320.7917,N,07629.5785,W,1,11,0.7,986.5,M,8.9,M,,0000*73
$GPGSA,A,3,02,29,15,21,24,25,14,13,12,05,18,,1.4,0.7,1.2*34
$GPGSV,3,1,11,24,60,124,47,29,55,233,43,15,40,006,45,21,25,334,38*7D
$GPGSV,3,2,11,02,18,128,47,18,15,315,33,12,15,160,37,25,15,198,38*7D
$GPGSV,3,3,11,14,14,231,35,13,08,029,39,05,07,065,46*47
$GPRMC,162909.000,A,0320.7917,N,07629.5785,W,0.04,143.86,180115,,,A*75
$GPGGA,162910.000,0320.7917,N,07629.5785,W,1,11,0.7,986.6,M,8.9,M,,0000*78
$GPGSA,A,3,02,29,15,21,24,25,14,13,12,05,18,,1.4,0.7,1.2*34
$GPRMC,162910.000,A,0320.7917,N,07629.5785,W,0.05,138.72,180115,,,A*7B
$GPGGA,162911.000,0320.7917,N,07629.5785,W,1,11,0.7,986.6,M,8.9,M,,0000*79
$GPGSA,A,3,02,29,15,21,24,25,14,13,12,05,18,,1.4,0.7,1.2*34
$GPRMC,162911.000,A,0320.7917,N,07629.5785,W,0.03,136.75,180115,,,A*75
$GPGGA,162912.000,0320.7917,N,07629.5785,W,1,11,0.7,986.6,M,8.9,M,,0000*7A
$GPGSA,A,3,02,29,15,21,24,25,14,13,12,05,18,,1.4,0.7,1.2*34
$GPRMC,162912.000,A,0320.7917,N,07629.5785,W,0.03,144.92,180115,,,A*7A
$GPGGA,162913.000,0320.7917,N,07629.5785,W,1,11,0.7,986.6,M,8.9,M,,0000*7B
$GPGSA,A,3,02,29,15,21,24,25,14,13,12,05,18,,1.4,0.7,1.2*34
$GPRMC,162913.000,A,0320.7917,N,07629.5785,W,0.06,138.47,180115,,,A*7D
$GPGGA,162914.000,0320.7917,N,07629.5785,W,1,11,0.7,986.6,M,8.9,M,,0000*7C
$GPGSA,A,3,02,29,15,21,24,25,14,13,12,05,18,,1.4,0.7,1.2*34
$GPGSV,3,1,11,24,60,124,47,29,55,233,43,15,40,006,45,21,25,334,38*7D
$GPGSV,3,2,11,02,18,128,47,18,15,315,33,12,15,160,36,25,15,198,38*7C
$GPGSV,3,3,11,14,14,231,35,13,08,029,39,05,07,065,46*47
$GPRMC,162914.000,A,0320.7917,N,07629.5785,W,0.05,143.23,180115,,,A*77
$GPGGA,162915.000,0320.7917,N,07629.5785,W,1,11,0.7,986.6,M,8.9,M,,0000*7D
$GPGSA,A,3,02,29,15,21,24,25,14,13,12,05,18,,1.4,0.7,1.2*34
$GPRMC,162915.000,A,0320.7917,N,07629.5785,W,0.05,129.60,180115,,,A*7D
$GPGGA,162916.000,0320.7917,N,07629.5785,W,1,11,0.7,986.6,M,8.9,M,,0000*7E
$GPGSA,A,3,02,29,15,21,24,25,14,13,12,05,18,,1.4,0.7,1.2*34
$GPRMC,162916.000,A,0320.7917,N,07629.5785,W,0.04,133.12,180115,,,A*71
$GPGGA,162917.000,0320.7917,N,07629.5785,W,1,11,0.7,986.6,M,8.9,M,,0000*7F
$GPGSA,A,3,02,29,15,21,24,25,14,13,12,05,18,,1.4,0.7,1.2*34
$GPRMC,162917.000,A,0320.7917,N,07629.5785,W,0.06,140.40,180115,,,A*71
$GPGGA,162918.000,0320.7917,N,07629.5785,W,1,11,0.7,986.6,M,8.9,M,,0000*70
$GPGSA,A,3,02,29,15,21,24,25,14,13,12,05,18,,1.4,0.7,1.2*34
$GPRMC,162918.000,A,0320.7917,N,07629.5785,W,0.04,136.95,180115,,,A*75
$GPGGA,162919.000,0320.7917,N,07629.5785,W,1,11,0.7,986.7,M,8.9,M,,0000*70
$GPGSA,A,3,02,29,15,21,24,25,14,13,12,05,18,,1.4,0.7,1.2*34
$GPGSV,3,1,11,24,60,124,47,29,55,233,43,15,40,006,45,21,25,334,38*7D
$GPGSV,3,2,11,02,18,128,48,18,15,315,28,12,15,160,36,25,15,198,38*79
$GPGSV,3,3,11,14,14,231,36,13,08,029,40,05,07,065,46*4A
$GPRMC,162919.000,A,0320.7917,N,07629.5785,W,0.05,130.38,180115,,,A*74
$GPGGA,162920.000,0320.7917,N,07629.5785,W,1,11,0.7,986.7,M,8.9,M,,0000*7A
$GPGSA,A,3,02,29,15,21,24,25,14,13,12,05,18,,1.4,0.7,1.2*34
$GPRMC,162920.000,A,0320.7917,N,07629.5785,W,0.04,140.61,180115,,,A*74
$GPGGA,162921.000,0320.7917,N,07629.5785,W,1,11,0.7,986.7,M,8.9,M,,0000*7B
$GPGSA,A,3,02,29,15,21,24,25,14,13,12,05,18,,1.4,0.7,1.2*34
$GPRMC,162921.000,A,0320.7917,N,07629.5785,W,0.04,137.52,180115,,,A*75
$GPGGA,162922.000,0320.7917,N,07629.5785,W,1,11,0.7,986.7,M,8.9,M,,0000*78
$GPGSA,A,3,02,29,15,21,24,25,14,13,12,05,18,,1.4,0.7,1.2*34
$GPRMC,162922.000,A,0320.7917,N,07629.5785,W,0.04,138.62,180115,,,A*7A
$GPGGA,162923.000,0320.7917,N,07629.5785,W,1,11,0.7,986.7,M,8.9,M,,0000*79
$GPGSA,A,3,02,29,15,21,24,25,14,13,12,05,18,,1.4,0.7,1.2*34
$GPRMC,162923.000,A,0320.7917,N,07629.5785,W,0.04,136.33,180115,,,A*71
$GPGGA,162924.000,0320.7918,N,07629.5785,W,1,11,0.7,986.7,M,8.9,M,,0000*71
$GPGSA,A,3,02,29,15,21,24,25,14,13,12,05,18,,1.4,0.7,1.2*34
$GPGSV,3,1,11,24,60,124,47,29,55,233,43,15,40,006,46,21,25,334,38*7E
$GPGSV,3,2,11,02,18,128,48,18,15,315,31,12,15,160,37,25,15,198,38*70
$GPGSV,3,3,11,14,14,231,35,13,08,029,41,05,07,065,46*48
$GPRMC,162924.000,A,0320.7918,N,07629.5785,W,0.02,140.88,180115,,,A*7E
$GPGGA,162925.000,0320.7918,N,07629.5785,W,1,11,0.7,986.7,M,8.9,M,,0000*70
$GPGSA,A,3,02,29,15,21,24,25,14,13,12,05,18,,1.4,0.7,1.2*34
$GPRMC,162925.000,A,0320.7918,N,07629.5785,W,0.05,125.11,180115,,,A*7B
$GPGGA,162926.000,0320.7918,N,07629.5785,W,1,11,0.7,986.7,M,8.9,M,,0000*73
$GPGSA,A,3,02,29,15,21,24,25,14,13,12,05,18,,1.4,0.7,1.2*34
$GPRMC,162926.000,A,0320.7918,N,07629.5785,W,0.05,132.96,180115,,,A*71
$GPGGA,162927.000,0320.7918,N,07629.5785,W,1,11,0.7,986.7,M,8.9,M,,0000*72
$GPGSA,A,3,02,29,15,21,24,25,14,13,12,05,18,,1.4,0.7,1.2*34
$GPRMC,162927.000,A,0320.7918,N,07629.5785,W,0.05,128.28,180115,,,A*7E
$GPGGA,162928.000,0320.7918,N,07629.5785,W,1,11,0.7,986.7,M,8.9,M,,0000*7D
$GPGSA,A,3,02,29,15,21,24,25,14,13,12,05,18,,1.4,0.7,1.2*34
$GPRMC,162928.000,A,0320.7918,N,07629.5785,W,0.05,124.19,180115,,,A*7F
$GPGGA,162929.000,0320.7918,N,07629.5785,W,1,11,0.7,986.7,M,8.9,M,,0000*7C
$GPGSA,A,3,02,29,15,21,24,25,14,13,12,05,18,,1.4,0.7,1.2*34
$GPGSV,3,1,11,24,60,124,48,29,55,233,44,15,40,006,46,21,25,334,39*77
$GPGSV,3,2,11,02,18,128,48,18,15,315,31,12,15,160,37,25,15,198,38*70
$GPGSV,3,3,11,14,14,231,36,13,08,029,41,05,07,065,46*4B
$GPRMC,162929.000,A,0320.7918,N,07629.5785,W,0.05,125.99,180115,,,A*77
$GPGGA,162930.000,0320.7918,N,07629.5785,W,1,11,0.7,986.8,M,8.9,M,,0000*7B
$GPGSA,A,3,02,29,15,21,24,25,14,13,12,05,18,,1.4,0.7,1.2*34
$GPRMC,162930.000,A,0320.7918,N,07629.5785,W,0.05,132.30,180115,,,A*7A
$GPGGA,162931.000,0320.7918,N,07629.5785,W,1,11,0.7,986.8,M,8.9,M,,0000*7A
$GPGSA,A,3,02,29,15,21,24,25,14,13,12,05,18,,1.4,0.7,1.2*34
$GPRMC,162931.000,A,0320.7918,N,07629.5785,W,0.05,124.38,180115,,,A*74
$GPGGA,162932.000,0320.7918,N,07629.5785,W,1,11,0.7,986.8,M,8.9,M,,0000*79
$GPGSA,A,3,02,29,15,21,24,25,14,13,12,05,18,,1.4,0.7,1.2*34
$GPRMC,162932.000,A,0320.7918,N,07629.5785,W,0.05,128.45,180115,,,A*71
$GPGGA,162933.000,0320.7918,N,07629.5785,W,1,11,0.7,986.8,M,8.9,M,,0000*78
$GPGSA,A,3,02,29,15,21,24,25,14,13,12,05,18,,1.4,0.7,1.2*34
$GPRMC,162933.000,A,0320.7918,N,07629.5785,W,0.05,126.53,180115,,,A*79
$GPGGA,162934.000,0320.7918,N,07629.5785,W,1,11,0.7,986.8,M,8.9,M,,0000*7F
$GPGSA,A,3,02,29,15,21,24,25,14,13,12,05,18,,1.4,0.7,1.2*34
$GPGSV,3,1,11,24,60,124,48,29,55,233,44,15,40,006,46,21,25,334,39*77
$GPGSV,3,2,11,02,18,128,49,18,15,315,32,12,15,160,37,25,15,198,38*72
$GPGSV,3,3,11,14,14,231,35,13,08,029,42,05,07,065,46*4B
$GPRMC,162934.000,A,0320.7918,N,07629.5785,W,0.05,127.84,180115,,,A*75
$GPGGA,162935.000,0320.7918,N,07629.5785,W,1,11,0.7,986.8,M,8.9,M,,0000*7E
$GPGSA,A,3,02,29,15,21,24,25,14,13,12,05,18,,1.4,0.7,1.2*34
$GPRMC,162935.000,A,0320.7918,N,07629.5785,W,0.05,127.94,180115,,,A*75
$GPGGA,162936.000,0320.7918,N,07629.5785,W,1,11,0.7,986.8,M,8.9,M,,0000*7D
$GPGSA,A,3,02,29,15,21,24,25,14,13,12,05,18,,1.4,0.7,1.2*34
$GPRMC,162936.000,A,0320.7918,N,07629.5785,W,0.04,130.44,180115,,,A*7C
$GPGGA,162937.000,0320.7918,N,07629.5785,W,1,11,0.7,986.8,M,8.9,M,,0000*7C
$GPGSA,A,3,02,29,15,21,24,25,14,13,12,05,18,,1.4,0.7,1.2*34
$GPRMC,162937.000,A,0320.7918,N,07629.5785,W,0.05,136.92,180115,,,A*71
$GPGGA,162938.000,0320.7918,N,07629.5785,W,1,11,0.7,986.8,M,8.9,M,,0000*73
$GPGSA,A,3,02,29,15,21,24,25,14,13,12,05,18,,1.4,0.7,1.2*34
$GPRMC,162938.000,A,0320.7918,N,07629.5785,W,0.05,127.30,180115,,,A*76
$GPGGA,162939.000,0320.7918,N,07629.5785,W,1,11,0.7,986.8,M,8.9,M,,0000*72
$GPGSA,A,3,02,29,15,21,24,25,14,13,12,05,18,,1.4,0.7,1.2*34
$GPGSV,3,1,11,24,60,123,48,29,55,232,45,15,40,006,46,21,26,334,40*7D
$GPGSV,3,2,11,02,18,128,48,18,15,315,32,12,15,160,37,25,15,198,38*73
$GPGSV,3,3,11,14,15,231,35,13,08,029,42,05,07,065,47*4B
$GPRMC,162939.000,A,0320.7918,N,07629.5785,W,0.04,139.57,180115,,,A*78
$GPGGA,162940.000,0320.7918,N,07629.5785,W,1,11,0.7,986.9,M,8.9,M,,0000*7D
$GPGSA,A,3,02,29,15,21,24,25,14,13,12,05,18,,1.4,0.7,1.2*34
$GPRMC,162940.000,A,0320.7918,N,07629.5785,W,0.05,128.53,180115,,,A*73
$GPGGA,162941.000,0320.7918,N,07629.5785,W,1,11,0.7,986.9,M,8.9,M,,0000*7C
$GPGSA,A,3,02,29,15,21,24,25,14,13,12,05,18,,1.4,0.7,1.2*34
$GPRMC,162941.000,A,0320.7918,N,07629.5785,W,0.04,129.81,180115,,,A*7D
$GPGGA,162942.000,0320.7918,N,07629.5785,W,1,11,0.7,986.9,M,8.9,M,,0000*7F
$GPGSA,A,3,02,29,15,21,24,25,14,13,12,05,18,,1.4,0.7,1.2*34
$GPRMC,162942.000,A,0320.7918,N,07629.5785,W,0.05,133.89,180115,,,A*7C
$GPGGA,162943.000,0320.7918,N,07629.5785,W,1,11,0.7,986.9,M,8.9,M,,0000*7E
$GPGSA,A,3,02,29,15,21,24,25,14,13,12,05,18,,1.4,0.7,1.2*34
$GPRMC,162943.000,A,0320.7918,N,07629.5785,W,0.05,133.98,180115,,,A*7D
$GPGGA,162944.000,0320.7918,N,07629.5785,W,1,11,0.7,986.9,M,8.9,M,,0000*79
$GPGSA,A,3,02,29,15,21,24,25,14,13,12,05,18,,1.4,0.7,1.2*34
$GPGSV,3,1,11,24,60,123,48,29,55,232,45,15,40,006,46,21,26,334,40*7D
$GPGSV,3,2,11,02,18,128,48,18,15,315,32,12,15,160,38,25,15,198,38*7C
$GPGSV,3,3,11,14,15,231,35,13,08,029,42,05,07,065,47*4B
$GPRMC,162944.000,A,0320.7918,N,07629.5785,W,0.05,132.84,180115,,,A*76
$GPGGA,162945.000,0320.7918,N,07629.5785,W,1,11,0.7,986.9,M,8.9,M,,0000*78
$GPGSA,A,3,02,29,15,21,24,25,14,13,12,05,18,,1.4,0.7,1.2*34
$GPRMC,162945.000,A,0320.7918,N,07629.5785,W,0.05,132.53,180115,,,A*7D
$GPGGA,162946.000,0320.7918,N,07629.5785,W,1,11,0.7,986.9,M,8.9,M,,0000*7B
$GPGSA,A,3,02,29,15,21,24,25,14,13,12,05,18,,1.4,0.7,1.2*34
$GPRMC,162946.000,A,0320.7918,N,07629.5785,W,0.05,135.84,180115,,,A*73
$GPGGA,162947.000,0320.7918,N,07629.5785,W,1,11,0.7,986.9,M,8.9,M,,0000*7A
$GPGSA,A,3,02,29,15,21,24,25,14,13,12,05,18,,1.4,0.7,1.2*34
$GPRMC,162947.000,A,0320.7918,N,07629.5785,W,0.05,134.07,180115,,,A*78
$GPGGA,162948.000,0320.7918,N,07629.5785,W,1,11,0.7,986.9,M,8.9,M,,0000*75
$GPGSA,A,3,02,29,15,21,24,25,14,13,12,05,18,,1.4,0.7,1.2*34
$GPRMC,162948.000,A,0320.7918,N,07629.5785,W,0.05,140.55,180115,,,A*73
$GPGGA,162949.000,0320.7918,N,07629.5785,W,1,11,0.7,986.9,M,8.9,M,,0000*74
$GPGSA,A,3,02,29,15,21,24,25,14,13,12,05,18,,1.4,0.7,1.2*34
$GPGSV,3,1,11,24,60,123,48,29,55,232,45,15,40,007,46,21,26,334,40*7C
$GPGSV,3,2,11,02,18,128,48,18,15,315,33,12,15,160,38,25,15,198,38*7D
$GPGSV,3,3,11,14,15,231,35,13,08,029,42,05,07,066,47*48
$GPRMC,162949.000,A,0320.7918,N,07629.5785,W,0.05,144.31,180115,,,A*74
$GPGGA,162950.000,0320.7918,N,07629.5785,W,1,11,0.7,986.9,M,8.9,M,,0000*7C
$GPGSA,A,3,02,29,15,21,24,25,14,13,12,05,18,,1.4,0.7,1.2*34
$GPRMC,162950.000,A,0320.7918,N,07629.5785,W,0.05,138.81,180115,,,A*7C
$GPGGA,162951.000,0320.7918,N,07629.5785,W,1,11,0.7,986.9,M,8.9,M,,0000*7D
$GPGSA,A,3,02,29,15,21,24,25,14,13,12,05,18,,1.4,0.7,1.2*34
$GPRMC,162951.000,A,0320.7918,N,07629.5785,W,0.05,133.35,180115,,,A*79
$GPGGA,162952.000,0320.7918,N,07629.5785,W,1,11,0.7,986.9,M,8.9,M,,0000*7E
$GPGSA,A,3,02,29,15,21,24,25,14,13,12,05,18,,1.4,0.7,1.2*34
$GPRMC,162952.000,A,0320.7918,N,07629.5785,W,0.05,145.45,180115,,,A*7C
$GPGGA,162953.000,0320.7918,N,07629.5785,W,1,11,0.7,986.9,M,8.9,M,,0000*7F
$GPGSA,A,3,02,29,15,21,24,25,14,13,12,05,18,,1.4,0.7,1.2*34
$GPRMC,162953.000,A,0320.7918,N,07629.5785,W,0.05,130.78,180115,,,A*71
$GPGGA,162954.000,0320.7918,N,07629.5785,W,1,11,0.7,986.9,M,8.9,M,,0000*78
$GPGSA,A,3,02,29,15,21,24,25,14,13,12,05,18,,1.4,0.7,1.2*34
$GPGSV,3,1,11,24,60,123,48,29,55,232,45,15,40,007,46,21,26,334,40*7C
$GPGSV,3,2,11,02,18,128,48,18,15,315,33,12,15,160,37,25,15,198,38*72
$GPGSV,3,3,11,14,15,231,35,13,08,029,43,05,07,066,47*49
$GPRMC,162954.000,A,0320.7918,N,07629.5785,W,0.05,141.13,180115,,,A*7D
$GPGGA,162955.000,0320.7918,N,07629.5785,W,1,11,0.7,986.9,M,8.9,M,,0000*79
$GPGSA,A,3,02,29,15,21,24,25,14,13,12,05,18,,1.4,0.7,1.2*34
$GPRMC,162955.000,A,0320.7918,N,07629.5785,W,0.05,132.36,180115,,,A*7F
$GPGGA,162956.000,0320.7918,N,07629.5785,W,1,11,0.7,986.9,M,8.9,M,,0000*7A
$GPGSA,A,3,02,29,15,21,24,25,14,13,12,05,18,,1.4,0.7,1.2*34
$GPRMC,162956.000,A,0320.7918,N,07629.5785,W,0.05,137.89,180115,,,A*7D
$GPGGA,162957.000,0320.7918,N,07629.5785,W,1,11,0.7,986.9,M,8.9,M,,0000*7B
$GPGSA,A,3,02,29,15,21,24,25,14,13,12,05,18,,1.4,0.7,1.2*34
$GPRMC,162957.000,A,0320.7918,N,07629.5785,W,0.04,133.00,180115,,,A*78
$GPGGA,162958.000,0320.7918,N,07629.5785,W,1,11,0.7,986.9,M,8.9,M,,0000*74
$GPGSA,A,3,02,29,15,21,24,25,14,13,12,05,18,,1.4,0.7,1.2*34
$GPRMC,162958.000,A,0320.7918,N,07629.5785,W,0.05,136.29,180115,,,A*78
$GPGGA,162959.000,0320.7918,N,07629.5785,W,1,11,0.7,986.9,M,8.9,M,,0000*75
$GPGSA,A,3,02,29,15,21,24,25,14,13,12,05,18,,1.4,0.7,1.2*34
$GPGSV,3,1,11,24,60,123,48,29,55,232,45,15,40,007,46,21,26,334,40*7C
$GPGSV,3,2,11,02,18,128,48,18,15,315,33,12,15,160,37,25,15,198,38*72
$GPGSV,3,3,11,14,15,231,35,13,08,029,43,05,07,066,47*49
$GPRMC,162959.000,A,0320.7918,N,07629.5785,W,0.05,130.43,180115,,,A*73
$GPGGA,163000.000,0320.7918,N,07629.5785,W,1,11,0.7,986.9,M,8.9,M,,0000*71
$GPGSA,A,3,02,29,15,21,24,25,14,13,12,05,18,,1.4,0.7,1.2*34
$GPRMC,163000.000,A,0320.7918,N,07629.5785,W,0.05,134.13,180115,,,A*76
$GPGGA,163001.000,0320.7918,N,07629.5785,W,1,11,0.7,987.0,M,8.9,M,,0000*78
$GPGSA,A,3,02,29,15,21,24,25,14,13,12,05,18,,1.4,0.7,1.2*34
$GPRMC,163001.000,A,0320.7918,N,07629.5785,W,0.05,131.01,180115,,,A*71
$GPGGA,163002.000,0320.7918,N,07629.5786,W,1,11,0.7,987.0,M,8.9,M,,0000*78
$GPGSA,A,3,02,29,15,21,24,25,14,13,12,05,18,,1.4,0.7,1.2*34
$GPRMC,163002.000,A,0320.7918,N,07629.5786,W,0.05,132.08,180115,,,A*7B
$GPGGA,163003.000,0320.7918,N,07629.5786,W,1,11,0.7,987.0,M,8.9,M,,0000*79
$GPGSA,A,3,02,29,15,21,24,25,14,13,12,05,18,,1.4,0.7,1.2*34
$GPRMC,163003.000,A,0320.7918,N,07629.5786,W,0.05,139.13,180115,,,A*7B
$GPGGA,163004.000,0320.7918,N,07629.5786,W,1,11,0.7,987.0,M,8.9,M,,0000*7E
$GPGSA,A,3,02,29,15,21,24,25,14,13,12,05,18,,1.4,0.7,1.2*34
$GPGSV,3,1,11,24,60,123,48,29,55,232,45,15,40,007,46,21,26,334,40*7C
$GPGSV,3,2,11,02,18,128,48,18,15,315,33,12,15,160,37,25,15,198,38*72
$GPGSV,3,3,11,14,15,231,35,13,08,029,43,05,07,066,47*49
$GPRMC,163004.000,A,0320.7918,N,07629.5786,W,0.05,132.28,180115,,,A*7F
$GPGGA,163005.000,0320.7918,N,07629.5786,W,1,11,0.7,987.0,M,8.9,M,,0000*7F
$GPGSA,A,3,02,29,15,21,24,25,14,13,12,05,18,,1.4,0.7,1.2*34
$GPRMC,163005.000,A,0320.7918,N,07629.5786,W,0.05,140.96,180115,,,A*7E
$GPGGA,163006.000,0320.7918,N,07629.5786,W,1,11,0.7,987.0,M,8.9,M,,0000*7C
$GPGSA,A,3,02,29,15,21,24,25,14,13,12,05,18,,1.4,0.7,1.2*34
$GPRMC,163006.000,A,0320.7918,N,07629.5786,W,0.05,132.10,180115,,,A*76
$GPGGA,163007.000,0320.7918,N,07629.5786,W,1,11,0.7,987.0,M,8.9,M,,0000*7D
$GPGSA,A,3,02,29,15,21,24,25,14,13,12,05,18,,1.4,0.7,1.2*34
$GPRMC,163007.000,A,0320.7918,N,07629.5786,W,0.05,133.51,180115,,,A*73
$GPGGA,163008.000,0320.7918,N,07629.5786,W,1,11,0.7,987.0,M,8.9,M,,0000*72
$GPGSA,A,3,02,29,15,21,24,25,14,13,12,05,18,,1.4,0.7,1.2*34
$GPRMC,163008.000,A,0320.7918,N,07629.5786,W,0.05,129.66,180115,,,A*73
$GPGGA,163009.000,0320.7918,N,07629.5786,W,1,11,0.7,987.0,M,8.9,M,,0000*73
$GPGSA,A,3,02,29,15,21,24,25,14,13,12,05,18,,1.4,0.7,1.2*34
$GPGSV,3,1,11,24,60,123,48,29,55,232,45,15,40,007,46,21,26,334,40*7C
$GPGSV,3,2,11,02,18,128,48,18,15,315,33,12,15,160,37,25,15,198,38*72
$GPGSV,3,3,11,14,15,231,35,13,08,029,43,05,07,066,47*49
$GPRMC,163009.000,A,0320.7918,N,07629.5786,W,0.05,134.08,180115,,,A*76
$GPGGA,163010.000,0320.7918,N,07629.5786,W,1,11,0.7,987.0,M,8.9,M,,0000*7B
$GPGSA,A,3,02,29,15,21,24,25,14,13,12,05,18,,1.4,0.7,1.2*34
$GPRMC,163010.000,A,0320.7918,N,07629.5786,W,0.05,124.16,180115,,,A*70
$GPGGA,163011.000,0320.7918,N,07629.5786,W,1,11,0.7,987.0,M,8.9,M,,0000*7A
$GPGSA,A,3,02,29,15,21,24,25,14,13,12,05,18,,1.4,0.7,1.2*34
$GPRMC,163011.000,A,0320.7918,N,07629.5786,W,0.05,118.44,180115,,,A*79
$GPGGA,163012.000,0320.7918,N,07629.5785,W,1,11,0.7,987.0,M,8.9,M,,0000*7A
$GPGSA,A,3,02,29,15,21,24,25,14,13,12,05,18,,1.4,0.7,1.2*34
$GPRMC,163012.000,A,0320.7918,N,07629.5785,W,0.06,117.80,180115,,,A*7D
$GPGGA,163013.000,0320.7918,N,07629.5785,W,1,11,0.7,987.0,M,8.9,M,,0000*7B
$GPGSA,A,3,02,29,15,21,24,25,14,13,12,05,18,,1.4,0.7,1.2*34
$GPRMC,163013.000,A,0320.7918,N,07629.5785,W,0.05,116.68,180115,,,A*78
$GPGGA,163014.000,0320.7918,N,07629.5785,W,1,11,0.7,987.0,M,8.9,M,,0000*7C
$GPGSA,A,3,02,29,15,21,24,25,14,13,12,05,18,,1.4,0.7,1.2*34
$GPGSV,3,1,11,24,60,123,48,29,55,232,45,15,40,007,46,21,26,334,40*7C
$GPGSV,3,2,11,02,18,128,48,18,15,315,33,12,15,160,37,25,15,198,39*73
$GPGSV,3,3,11,14,15,231,34,13,08,029,43,05,07,066,47*48
$GPRMC,163014.000,A,0320.7918,N,07629.5785,W,0.06,113.05,180115,,,A*72
$GPGGA,163015.000,0320.7918,N,07629.5785,W,1,11,0.7,987.0,M,8.9,M,,0000*7D
$GPGSA,A,3,02,29,15,21,24,25,14,13,12,05,18,,1.4,0.7,1.2*34
$GPRMC,163015.000,A,0320.7918,N,07629.5785,W,0.05,114.21,180115,,,A*71
$GPGGA,163016.000,0320.7918,N,07629.5785,W,1,11,0.7,987.0,M,8.9,M,,0000*7E
$GPGSA,A,3,02,29,15,21,24,25,14,13,12,05,18,,1.4,0.7,1.2*34
$GPRMC,163016.000,A,0320.7918,N,07629.5785,W,0.05,115.14,180115,,,A*75
$GPGGA,163017.000,0320.7918,N,07629.5785,W,1,11,0.7,987.0,M,8.9,M,,0000*7F
$GPGSA,A,3,02,29,15,21,24,25,14,13,12,05,18,,1.4,0.7,1.2*34
$GPRMC,163017.000,A,0320.7918,N,07629.5785,W,0.06,115.00,180115,,,A*72
$GPGGA,163018.000,0320.7918,N,07629.5785,W,1,11,0.7,987.0,M,8.9,M,,0000*70
$GPGSA,A,3,02,29,15,21,24,25,14,13,12,05,18,,1.4,0.7,1.2*34
$GPRMC,163018.000,A,0320.7918,N,07629.5785,W,0.06,120.47,180115,,,A*78
$GPGGA,163019.000,0320.7918,N,07629.5785,W,1,11,0.7,987.0,M,8.9,M,,0000*71
$GPGSA,A,3,02,29,15,21,24,25,14,13,12,05,18,,1.4,0.7,1.2*34
$GPGSV,3,1,11,24,60,123,48,29,55,232,45,15,40,007,46,21,26,334,40*7C
$GPGSV,3,2,11,02,18,129,48,18,15,315,33,12,15,160,37,14,15,231,34*7D
$GPGSV,3,3,11,25,15,198,39,13,08,029,43,05,07,066,47*47
$GPRMC,163019.000,A,0320.7918,N,07629.5785,W,0.05,112.97,180115,,,A*76
$GPGGA,163020.000,0320.7918,N,07629.5785,W,1,11,0.7,987.0,M,8.9,M,,0000*7B
$GPGSA,A,3,02,29,15,21,24,25,14,13,12,05,18,,1.4,0.7,1.2*34
$GPRMC,163020.000,A,0320.7918,N,07629.5785,W,0.06,117.81,180115,,,A*7D
$GPGGA,163021.000,0320.7918,N,07629.5785,W,1,11,0.7,987.0,M,8.9,M,,0000*7A
$GPGSA,A,3,02,29,15,21,24,25,14,13,12,05,18,,1.4,0.7,1.2*34
$GPRMC,163021.000,A,0320.7918,N,07629.5785,W,0.05,105.27,180115,,,A*70
$GPGGA,163022.000,0320.7918,N,07629.5785,W,1,11,0.7,987.0,M,8.9,M,,0000*79
$GPGSA,A,3,02,29,15,21,24,25,14,13,12,05,18,,1.4,0.7,1.2*34
$GPRMC,163022.000,A,0320.7918,N,07629.5785,W,0.05,114.98,180115,,,A*77
$GPGGA,163023.000,0320.7918,N,07629.5785,W,1,11,0.7,987.0,M,8.9,M,,0000*78
$GPGSA,A,3,02,29,15,21,24,25,14,13,12,05,18,,1.4,0.7,1.2*34
$GPRMC,163023.000,A,0320.7918,N,07629.5785,W,0.06,114.95,180115,,,A*78
$GPGGA,163024.000,0320.7918,N,07629.5785,W,1,11,0.7,987.0,M,8.9,M,,0000*7F
$GPGSA,A,3,02,29,15,21,24,25,14,13,12,05,18,,1.4,0.7,1.2*34
$GPGSV,3,1,11,24,60,123,48,29,55,232,45,15,40,007,45,21,26,334,40*7F
$GPGSV,3,2,11,02,18,129,48,18,15,315,33,12,15,160,38,14,15,231,34*72
$GPGSV,3,3,11,25,15,198,39,13,08,029,43,05,07,066,47*47
$GPRMC,163024.000,A,0320.7918,N,07629.5785,W,0.05,116.95,180115,,,A*7E
$GPGGA,163025.000,0320.7918,N,07629.5785,W,1,11,0.7,987.0,M,8.9,M,,0000*7E
$GPGSA,A,3,02,29,15,21,24,25,14,13,12,05,18,,1.4,0.7,1.2*34
$GPRMC,163025.000,A,0320.7918,N,07629.5785,W,0.05,116.35,180115,,,A*75
$GPGGA,163026.000,0320.7918,N,07629.5785,W,1,11,0.7,987.0,M,8.9,M,,0000*7D
$GPGSA,A,3,02,29,15,21,24,25,14,13,12,05,18,,1.4,0.7,1.2*34
$GPRMC,163026.000,A,0320.7918,N,07629.5785,W,0.06,112.36,180115,,,A*72
$GPGGA,163027.000,0320.7918,N,07629.5785,W,1,11,0.7,987.0,M,8.9,M,,0000*7C
$GPGSA,A,3,02,29,15,21,24,25,14,13,12,05,18,,1.4,0.7,1.2*34
$GPRMC,163027.000,A,0320.7918,N,07629.5785,W,0.05,111.84,180115,,,A*7A
$GPGGA,163028.000,0320.7919,N,07629.5785,W,1,11,0.7,987.0,M,8.9,M,,0000*72
$GPGSA,A,3,02,29,15,21,24,25,14,13,12,05,18,,1.4,0.7,1.2*34
$GPRMC,163028.000,A,0320.7919,N,07629.5785,W,0.05,113.85,180115,,,A*77
$GPGGA,163029.000,0320.7919,N,07629.5785,W,1,11,0.7,987.0,M,8.9,M,,0000*73
$GPGSA,A,3,02,29,15,21,24,25,14,13,12,05,18,,1.4,0.7,1.2*34
$GPGSV,3,1,11,24,60,123,48,29,55,232,45,15,40,007,45,21,26,334,40*7F
$GPGSV,3,2,11,02,18,129,48,18,15,315,33,12,15,160,38,14,15,231,34*72
$GPGSV,3,3,11,25,15,198,39,13,08,029,43,05,07,066,47*47
$GPRMC,163029.000,A,0320.7919,N,07629.5785,W,0.05,113.39,180115,,,A*71
$GPGGA,163030.000,0320.7919,N,07629.5785,W,1,11,0.7,987.0,M,8.9,M,,0000*7B
$GPGSA,A,3,02,29,15,21,24,25,14,13,12,05,18,,1.4,0.7,1.2*34
$GPRMC,163030.000,A,0320.7919,N,07629.5785,W,0.05,102.35,180115,,,A*75
$GPGGA,163031.000,0320.7919,N,07629.5785,W,1,11,0.7,987.0,M,8.9,M,,0000*7A
$GPGSA,A,3,02,29,15,21,24,25,14,13,12,05,18,,1.4,0.7,1.2*34
$GPRMC,163031.000,A,0320.7919,N,07629.5785,W,0.06,125.46,180115,,,A*76
$GPGGA,163032.000,0320.7919,N,07629.5785,W,1,11,0.7,987.0,M,8.9,M,,0000*79
$GPGSA,A,3,02,29,15,21,24,25,14,13,12,05,18,,1.4,0.7,1.2*34
$GPRMC,163032.000,A,0320.7919,N,07629.5785,W,0.05,117.43,180115,,,A*72
$GPGGA,163033.000,0320.7919,N,07629.5785,W,1,11,0.7,987.0,M,8.9,M,,0000*78
$GPGSA,A,3,02,29,15,21,24,25,14,13,12,05,18,,1.4,0.7,1.2*34
$GPRMC,163033.000,A,0320.7919,N,07629.5785,W,0.06,106.32,180115,,,A*76
$GPGGA,163034.000,0320.7919,N,07629.5785,W,1,11,0.7,987.0,M,8.9,M,,0000*7F
$GPGSA,A,3,02,29,15,21,24,25,14,13,12,05,18,,1.4,0.7,1.2*34
$GPGSV,3,1,11,24,60,123,47,29,55,232,45,15,40,007,45,21,26,334,39*7E
$GPGSV,3,2,11,02,18,129,47,18,15,315,33,12,15,160,37,14,15,231,33*75
$GPGSV,3,3,11,25,15,198,39,13,08,029,42,05,07,066,47*46
$GPRMC,163034.000,A,0320.7919,N,07629.5785,W,0.04,114.08,180115,,,A*79
$GPGGA,163035.000,0320.7919,N,07629.5785,W,1,11,0.7,987.0,M,8.9,M,,0000*7E
$GPGSA,A,3,02,29,15,21,24,25,14,13,12,05,18,,1.4,0.7,1.2*34
$GPRMC,163035.000,A,0320.7919,N,07629.5785,W,0.06,113.25,180115,,,A*72
$GPGGA,163036.000,0320.7919,N,07629.5785,W,1,11,0.7,987.0,M,8.9,M,,0000*7D
$GPGSA,A,3,02,29,15,21,24,25,14,13,12,05,18,,1.4,0.7,1.2*34
$GPRMC,163036.000,A,0320.7919,N,07629.5785,W,0.05,118.15,180115,,,A*7A
$GPGGA,163037.000,0320.7919,N,07629.5785,W,1,11,0.7,987.0,M,8.9,M,,0000*7C
$GPGSA,A,3,02,29,15,21,24,25,14,13,12,05,18,,1.4,0.7,1.2*34
$GPRMC,163037.000,A,0320.7919,N,07629.5785,W,0.05,104.64,180115,,,A*70
$GPGGA,163038.000,0320.7919,N,07629.5785,W,1,11,0.7,987.0,M,8.9,M,,0000*73
$GPGSA,A,3,02,29,15,21,24,25,14,13,12,05,18,,1.4,0.7,1.2*34
$GPRMC,163038.000,A,0320.7919,N,07629.5785,W,0.06,126.53,180115,,,A*78
$GPGGA,163039.000,0320.7919,N,07629.5785,W,1,11,0.7,987.0,M,8.9,M,,0000*72
$GPGSA,A,3,02,29,15,21,24,25,14,13,12,05,18,,1.4,0.7,1.2*34
$GPGSV,3,1,11,24,60,122,47,29,55,232,44,15,39,007,44,21,26,334,39*71
$GPGSV,3,2,11,02,17,129,47,18,15,316,33,12,15,160,37,14,15,231,33*79
$GPGSV,3,3,11,25,15,198,39,13,08,029,42,05,07,066,47*46
$GPRMC,163039.000,A,0320.7919,N,07629.5785,W,0.05,118.01,180115,,,A*70
$GPGGA,163040.000,0320.7919,N,07629.5785,W,1,11,0.7,987.0,M,8.9,M,,0000*7C
$GPGSA,A,3,02,29,15,21,24,25,14,13,12,05,18,,1.4,0.7,1.2*34
$GPRMC,163040.000,A,0320.7919,N,07629.5785,W,0.05,118.08,180115,,,A*77
$GPGGA,163041.000,0320.7919,N,07629.5785,W,1,11,0.7,987.0,M,8.9,M,,0000*7D
$GPGSA,A,3,02,29,15,21,24,25,14,13,12,05,18,,1.4,0.7,1.2*34
$GPRMC,163041.000,A,0320.7919,N,07629.5785,W,0.05,111.79,180115,,,A*79
$GPGGA,163042.000,0320.7919,N,07629.5785,W,1,11,0.7,987.0,M,8.9,M,,0000*7E
$GPGSA,A,3,02,29,15,21,24,25,14,13,12,05,18,,1.4,0.7,1.2*34
$GPRMC,163042.000,A,0320.7919,N,07629.5785,W,0.05,120.97,180115,,,A*78
$GPGGA,163043.000,0320.7919,N,07629.5785,W,1,11,0.7,987.0,M,8.9,M,,0000*7F
$GPGSA,A,3,02,29,15,21,24,25,14,13,12,05,18,,1.4,0.7,1.2*34
$GPRMC,163043.000,A,0320.7919,N,07629.5785,W,0.05,113.68,180115,,,A*79
$GPGGA,163044.000,0320.7919,N,07629.5785,W,1,11,0.7,987.0,M,8.9,M,,0000*78
$GPGSA,A,3,02,29,15,21,24,25,14,13,12,05,18,,1.4,0.7,1.2*34
$GPGSV,3,1,11,24,60,122,47,29,55,232,44,15,39,007,44,21,26,334,39*71
$GPGSV,3,2,11,02,17,129,47,18,15,316,33,12,15,160,37,14,15,231,33*79
$GPGSV,3,3,11,25,15,198,39,13,08,029,42,05,07,066,47*46
$GPRMC,163044.000,A,0320.7919,N,07629.5785,W,0.06,119.03,180115,,,A*7A
$GPGGA,163045.000,0320.7919,N,07629.5785,W,1,11,0.7,987.0,M,8.9,M,,0000*79
$GPGSA,A,3,02,29,15,21,24,25,14,13,12,05,18,,1.4,0.7,1.2*34
$GPRMC,163045.000,A,0320.7919,N,07629.5785,W,0.05,115.99,180115,,,A*77
$GPGGA,163046.000,0320.7919,N,07629.5785,W,1,11,0.7,987.0,M,8.9,M,,0000*7A
$GPGSA,A,3,02,29,15,21,24,25,14,13,12,05,18,,1.4,0.7,1.2*34
$GPRMC,163046.000,A,0320.7919,N,07629.5785,W,0.05,115.04,180115,,,A*70
$GPGGA,163047.000,0320.7919,N,07629.5785,W,1,11,0.7,987.0,M,8.9,M,,0000*7B
$GPGSA,A,3,02,29,15,21,24,25,14,13,12,05,18,,1.4,0.7,1.2*34
$GPRMC,163047.000,A,0320.7919,N,07629.5785,W,0.04,99.62,180115,,,A*45
$GPGGA,163048.000,0320.7919,N,07629.5785,W,1,11,0.7,987.0,M,8.9,M,,0000*74
$GPGSA,A,3,02,29,15,21,24,25,14,13,12,05,18,,1.4,0.7,1.2*34
$GPRMC,163048.000,A,0320.7919,N,07629.5785,W,0.06,127.11,180115,,,A*78
$GPGGA,163049.000,0320.7919,N,07629.5785,W,1,11,0.7,987.0,M,8.9,M,,0000*75
$GPGSA,A,3,02,29,15,21,24,25,14,13,12,05,18,,1.4,0.7,1.2*34
$GPGSV,3,1,11,24,60,122,47,29,55,231,44,15,39,007,45,21,26,334,38*72
$GPGSV,3,2,11,02,17,129,47,18,15,316,33,12,15,160,37,14,15,231,33*79
$GPGSV,3,3,11,25,15,198,39,13,08,029,42,05,07,066,47*46
$GPRMC,163049.000,A,0320.7919,N,07629.5785,W,0.05,110.24,180115,,,A*78
$GPGGA,163050.000,0320.7919,N,07629.5785,W,1,11,0.7,987.0,M,8.9,M,,0000*7D
$GPGSA,A,3,02,29,15,21,24,25,14,13,12,05,18,,1.4,0.7,1.2*34
$GPRMC,163050.000,A,0320.7919,N,07629.5785,W,0.04,114.36,180115,,,A*76
$GPGGA,163051.000,0320.7919,N,07629.5786,W,1,11,0.7,987.0,M,8.9,M,,0000*7F
$GPGSA,A,3,02,29,15,21,24,25,14,13,12,05,18,,1.4,0.7,1.2*34
$GPRMC,163051.000,A,0320.7919,N,07629.5786,W,0.05,116.96,180115,,,A*7D
$GPGGA,163052.000,0320.7919,N,07629.5786,W,1,11,0.7,987.0,M,8.9,M,,0000*7C
$GPGSA,A,3,02,29,15,21,24,25,14,13,12,05,18,,1.4,0.7,1.2*34
$GPRMC,163052.000,A,0320.7919,N,07629.5786,W,0.04,122.69,180115,,,A*78
$GPGGA,163053.000,0320.7919,N,07629.5786,W,1,11,0.7,987.0,M,8.9,M,,0000*7D
$GPGSA,A,3,02,29,15,21,24,25,14,13,12,05,18,,1.4,0.7,1.2*34
$GPRMC,163053.000,A,0320.7919,N,07629.5786,W,0.04,115.99,180115,,,A*72
$GPGGA,163054.000,0320.7919,N,07629.5786,W,1,11,0.7,987.0,M,8.9,M,,0000*7A
$GPGSA,A,3,02,29,15,21,24,25,14,13,12,05,18,,1.4,0.7,1.2*34
$GPGSV,3,1,11,24,60,122,47,29,55,231,44,15,39,007,45,21,26,334,38*72
$GPGSV,3,2,11,02,17,129,47,18,15,316,32,12,15,160,37,14,15,231,33*78
$GPGSV,3,3,11,25,15,198,39,13,08,029,42,05,07,066,47*46
$GPRMC,163054.000,A,0320.7919,N,07629.5786,W,0.04,118.91,180115,,,A*70
$GPGGA,163055.000,0320.7919,N,07629.5786,W,1,11,0.7,987.0,M,8.9,M,,0000*7B
$GPGSA,A,3,02,29,15,21,24,25,14,13,12,05,18,,1.4,0.7,1.2*34
$GPRMC,163055.000,A,0320.7919,N,07629.5786,W,0.04,118.29,180115,,,A*72
$GPGGA,163056.000,0320.7919,N,07629.5786,W,1,11,0.7,987.0,M,8.9,M,,0000*78
$GPGSA,A,3,02,29,15,21,24,25,14,13,12,05,18,,1.4,0.7,1.2*34
$GPRMC,163056.000,A,0320.7919,N,07629.5786,W,0.04,110.34,180115,,,A*75
$GPGGA,163057.000,0320.7919,N,07629.5786,W,1,11,0.7,987.0,M,8.9,M,,0000*79
$GPGSA,A,3,02,29,15,21,24,25,14,13,12,05,18,,1.4,0.7,1.2*34
$GPRMC,163057.000,A,0320.7919,N,07629.5786,W,0.04,126.26,180115,,,A*72
$GPGGA,163058.000,0320.7920,N,07629.5786,W,1,11,0.7,987.0,M,8.9,M,,0000*7C
$GPGSA,A,3,02,29,15,21,24,25,14,13,12,05,18,,1.4,0.7,1.2*34
$GPRMC,163058.000,A,0320.7920,N,07629.5786,W,0.03,104.85,180115,,,A*79
$GPGGA,163059.000,0320.7920,N,07629.5786,W,1,11,0.7,987.0,M,8.9,M,,0000*7D
$GPGSA,A,3,02,29,15,21,24,25,14,13,12,05,18,,1.4,0.7,1.2*34
$GPGSV,3,1,11,24,60,122,47,29,55,231,44,15,39,007,44,21,26,334,38*73
$GPGSV,3,2,11,02,17,129,47,18,15,316,33,12,15,160,37,14,15,231,33*79
$GPGSV,3,3,11,25,15,198,39,13,08,029,42,05,07,066,47*46
$GPRMC,163059.000,A,0320.7920,N,07629.5786,W,0.06,119.73,180115,,,A*78
$GPGGA,163100.000,0320.7920,N,07629.5786,W,1,11,0.7,987.0,M,8.9,M,,0000*70
$GPGSA,A,3,02,29,15,21,24,25,14,13,12,05,18,,1.4,0.7,1.2*34
$GPRMC,163100.000,A,0320.7920,N,07629.5786,W,0.04,110.56,180115,,,A*79
$GPGGA,163101.000,0320.7920,N,07629.5786,W,1,11,0.7,987.0,M,8.9,M,,0000*71
$GPGSA,A,3,02,29,15,21,24,25,14,13,12,05,18,,1.4,0.7,1.2*34
$GPRMC,163101.000,A,0320.7920,N,07629.5786,W,0.05,128.04,180115,,,A*75
$GPGGA,163102.000,0320.7920,N,07629.5786,W,1,11,0.7,987.0,M,8.9,M,,0000*72
$GPGSA,A,3,02,29,15,21,24,25,14,13,12,05,18,,1.4,0.7,1.2*34
$GPRMC,163102.000,A,0320.7920,N,07629.5786,W,0.05,112.18,180115,,,A*72
$GPGGA,163103.000,0320.7920,N,07629.5786,W,1,11,0.7,987.0,M,8.9,M,,0000*73
$GPGSA,A,3,02,29,15,21,24,25,14,13,12,05,18,,1.4,0.7,1.2*34
$GPRMC,163103.000,A,0320.7920,N,07629.5786,W,0.04,116.17,180115,,,A*79
$GPGGA,163104.000,0320.7920,N,07629.5786,W,1,11,0.7,987.0,M,8.9,M,,0000*74
$GPGSA,A,3,02,29,15,21,24,25,14,13,12,05,18,,1.4,0.7,1.2*34
$GPGSV,3,1,11,24,60,122,47,29,55,231,44,15,39,007,44,21,26,334,38*73
$GPGSV,3,2,11,02,17,129,47,18,15,316,33,12,15,160,36,14,15,231,33*78
$GPGSV,3,3,11,25,15,198,39,13,08,029,42,05,07,066,47*46
$GPRMC,163104.000,A,0320.7920,N,07629.5786,W,0.04,115.81,180115,,,A*72
$GPGGA,163105.000,0320.7920,N,07629.5786,W,1,11,0.7,987.0,M,8.9,M,,0000*75
$GPGSA,A,3,02,29,15,21,24,25,14,13,12,05,18,,1.4,0.7,1.2*34
$GPRMC,163105.000,A,0320.7920,N,07629.5786,W,0.05,118.47,180115,,,A*75
$GPGGA,163106.000,0320.7920,N,07629.5786,W,1,11,0.7,987.0,M,8.9,M,,0000*76
$GPGSA,A,3,02,29,15,21,24,25,14,13,12,05,18,,1.4,0.7,1.2*34
$GPRMC,163106.000,A,0320.7920,N,07629.5786,W,0.04,115.58,180115,,,A*74
$GPGGA,163107.000,0320.7920,N,07629.5786,W,1,11,0.7,987.0,M,8.9,M,,0000*77
$GPGSA,A,3,02,29,15,21,24,25,14,13,12,05,18,,1.4,0.7,1.2*34
$GPRMC,163107.000,A,0320.7920,N,07629.5786,W,0.05,118.03,180115,,,A*77
$GPGGA,163108.000,0320.7920,N,07629.5786,W,1,11,0.7,987.0,M,8.9,M,,0000*78
$GPGSA,A,3,02,29,15,21,24,25,14,13,12,05,18,,1.4,0.7,1.2*34
$GPRMC,163108.000,A,0320.7920,N,07629.5786,W,0.04,126.00,180115,,,A*77
$GPGGA,163109.000,0320.7920,N,07629.5786,W,1,11,0.7,987.0,M,8.9,M,,0000*79
$GPGSA,A,3,02,29,15,21,24,25,14,13,12,05,18,,1.4,0.7,1.2*34
$GPGSV,3,1,11,24,60,122,47,29,55,231,44,15,39,007,45,21,26,335,38*73
$GPGSV,3,2,11,02,17,129,47,18,15,316,33,14,15,232,33,12,15,160,36*7B
$GPGSV,3,3,11,25,15,197,39,13,07,029,42,05,07,066,47*46
$GPRMC,163109.000,A,0320.7920,N,07629.5786,W,0.05,112.38,180115,,,A*7B
$GPGGA,163110.000,0320.7920,N,07629.5786,W,1,11,0.7,987.0,M,8.9,M,,0000*71
$GPGSA,A,3,02,29,15,21,24,25,14,13,12,05,18,,1.4,0.7,1.2*34
$GPRMC,163110.000,A,0320.7920,N,07629.5786,W,0.05,108.18,180115,,,A*7A
$GPGGA,163111.000,0320.7920,N,07629.5786,W,1,11,0.7,987.0,M,8.9,M,,0000*70
$GPGSA,A,3,02,29,15,21,24,25,14,13,12,05,18,,1.4,0.7,1.2*34
$GPRMC,163111.000,A,0320.7920,N,07629.5786,W,0.05,121.50,180115,,,A*7C
$GPGGA,163112.000,0320.7920,N,07629.5786,W,1,11,0.7,987.0,M,8.9,M,,0000*73
$GPGSA,A,3,02,29,15,21,24,25,14,13,12,05,18,,1.4,0.7,1.2*34
$GPRMC,163112.000,A,0320.7920,N,07629.5786,W,0.04,112.32,180115,,,A*7A
$GPGGA,163113.000,0320.7920,N,07629.5787,W,1,11,0.7,987.0,M,8.9,M,,0000*73
$GPGSA,A,3,02,29,15,21,24,25,14,13,12,05,18,,1.4,0.7,1.2*34
$GPRMC,163113.000,A,0320.7920,N,07629.5787,W,0.05,119.17,180115,,,A*77
$GPGGA,163114.000,0320.7920,N,07629.5787,W,1,11,0.7,987.0,M,8.9,M,,0000*74
$GPGSA,A,3,02,29,15,21,24,25,14,13,12,05,18,,1.4,0.7,1.2*34
$GPGSV,3,1,11,24,60,122,47,29,55,231,44,15,39,007,45,21,26,335,38*73
$GPGSV,3,2,11,02,17,129,47,18,15,316,34,14,15,232,33,12,15,160,36*7C
$GPGSV,3,3,11,25,15,197,39,13,07,029,42,05,07,066,47*46
$GPRMC,163114.000,A,0320.7920,N,07629.5787,W,0.05,115.09,180115,,,A*73
$GPGGA,163115.000,0320.7920,N,07629.5787,W,1,11,0.7,987.0,M,8.9,M,,0000*75
$GPGSA,A,3,02,29,15,21,24,25,14,13,12,05,18,,1.4,0.7,1.2*34
$GPRMC,163115.000,A,0320.7920,N,07629.5787,W,0.06,113.42,180115,,,A*78
$GPGGA,163116.000,0320.7920,N,07629.5787,W,1,11,0.7,987.0,M,8.9,M,,0000*76
$GPGSA,A,3,02,29,15,21,24,25,14,13,12,05,18,,1.4,0.7,1.2*34
$GPRMC,163116.000,A,0320.7920,N,07629.5787,W,0.06,117.96,180115,,,A*76
$GPGGA,163117.000,0320.7920,N,07629.5787,W,1,11,0.7,987.0,M,8.9,M,,0000*77
$GPGSA,A,3,02,29,15,21,24,25,14,13,12,05,18,,1.4,0.7,1.2*34
$GPRMC,163117.000,A,0320.7920,N,07629.5787,W,0.04,114.76,180115,,,A*78
$GPGGA,163118.000,0320.7920,N,07629.5787,W,1,11,0.7,987.0,M,8.9,M,,0000*78
$GPGSA,A,3,02,29,15,21,24,25,14,13,12,05,18,,1.4,0.7,1.2*34
$GPRMC,163118.000,A,0320.7920,N,07629.5787,W,0.06,121.47,180115,,,A*71
$GPGGA,163119.000,0320.7920,N,07629.5787,W,1,11,0.7,987.0,M,8.9,M,,0000*79
$GPGSA,A,3,02,29,15,21,24,25,14,13,12,05,18,,1.4,0.7,1.2*34
$GPGSV,3,1,11,24,60,122,47,29,55,231,44,15,39,007,45,21,26,335,39*72
$GPGSV,3,2,11,02,17,129,47,18,15,316,34,14,15,232,33,12,15,160,36*7C
$GPGSV,3,3,11,25,15,197,39,13,07,029,42,05,07,066,47*46
$GPRMC,163119.000,A,0320.7920,N,07629.5787,W,0.05,121.19,180115,,,A*78
$GPGGA,163120.000,0320.7920,N,07629.5787,W,1,11,0.7,987.0,M,8.9,M,,0000*73
$GPGSA,A,3,02,29,15,21,24,25,14,13,12,05,18,,1.4,0.7,1.2*34
$GPRMC,163120.000,A,0320.7920,N,07629.5787,W,0.06,120.36,180115,,,A*7D
$GPGGA,163121.000,0320.7920,N,07629.5787,W,1,11,0.7,987.0,M,8.9,M,,0000*72
$GPGSA,A,3,02,29,15,21,24,25,14,13,12,05,18,,1.4,0.7,1.2*34
$GPRMC,163121.000,A,0320.7920,N,07629.5787,W,0.06,120.84,180115,,,A*75
$GPGGA,163122.000,0320.7920,N,07629.5787,W,1,11,0.7,986.9,M,8.9,M,,0000*79
$GPGSA,A,3,02,29,15,21,24,25,14,13,12,05,18,,1.4,0.7,1.2*34
$GPRMC,163122.000,A,0320.7920,N,07629.5787,W,0.04,115.95,180115,,,A*72
$GPGGA,163123.000,0320.7920,N,07629.5787,W,1,11,0.7,986.9,M,8.9,M,,0000*78
$GPGSA,A,3,02,29,15,21,24,25,14,13,12,05,18,,1.4,0.7,1.2*34
$GPRMC,163123.000,A,0320.7920,N,07629.5787,W,0.07,122.90,180115,,,A*71
$GPGGA,163124.000,0320.7920,N,07629.5787,W,1,11,0.7,986.9,M,8.9,M,,0000*7F
$GPGSA,A,3,02,29,15,21,24,25,14,13,12,05,18,,1.4,0.7,1.2*34
$GPGSV,3,1,11,24,60,122,47,29,55,231,44,15,39,007,45,21,26,335,39*72
$GPGSV,3,2,11,02,17,129,46,18,15,316,35,14,15,232,33,12,15,160,36*7C
$GPGSV,3,3,11,25,15,197,39,13,07,029,42,05,07,066,47*46
$GPRMC,163124.000,A,0320.7920,N,07629.5787,W,0.05,120.44,180115,,,A*7F
$GPGGA,163125.000,0320.7920,N,07629.5787,W,1,11,0.7,986.8,M,8.9,M,,0000*7F
$GPGSA,A,3,02,29,15,21,24,25,14,13,12,05,18,,1.4,0.7,1.2*34
$GPRMC,163125.000,A,0320.7920,N,07629.5787,W,0.05,116.51,180115,,,A*7F
$GPGGA,163126.000,0320.7920,N,07629.5787,W,1,11,0.7,986.8,M,8.9,M,,0000*7C
$GPGSA,A,3,02,29,15,21,24,25,14,13,12,05,18,,1.4,0.7,1.2*34
$GPRMC,163126.000,A,0320.7920,N,07629.5787,W,0.05,120.91,180115,,,A*75
$GPGGA,163127.000,0320.7920,N,07629.5787,W,1,11,0.7,986.8,M,8.9,M,,0000*7D
$GPGSA,A,3,02,29,15,21,24,25,14,13,12,05,18,,1.4,0.7,1.2*34
$GPRMC,163127.000,A,0320.7920,N,07629.5787,W,0.05,117.37,180115,,,A*7C
$GPGGA,163128.000,0320.7920,N,07629.5787,W,1,11,0.7,986.8,M,8.9,M,,0000*72
$GPGSA,A,3,02,29,15,21,24,25,14,13,12,05,18,,1.4,0.7,1.2*34
$GPRMC,163128.000,A,0320.7920,N,07629.5787,W,0.05,113.03,180115,,,A*70
$GPGGA,163129.000,0320.7920,N,07629.5788,W,1,11,0.7,986.7,M,8.9,M,,0000*73
$GPGSA,A,3,02,29,15,21,24,25,14,13,12,05,18,,1.4,0.7,1.2*34
$GPGSV,3,1,11,24,60,122,47,29,55,231,44,15,39,007,45,21,26,335,39*72
$GPGSV,3,2,11,02,17,129,46,18,15,316,35,14,15,232,33,12,15,160,36*7C
$GPGSV,3,3,11,25,15,197,39,13,07,029,42,05,07,066,47*46
$GPRMC,163129.000,A,0320.7920,N,07629.5788,W,0.04,119.41,180115,,,A*73
$GPGGA,163130.000,0320.7920,N,07629.5788,W,1,11,0.7,986.7,M,8.9,M,,0000*7B
$GPGSA,A,3,02,29,15,21,24,25,14,13,12,05,18,,1.4,0.7,1.2*34
$GPRMC,163130.000,A,0320.7920,N,07629.5788,W,0.05,123.56,180115,,,A*75
$GPGGA,163131.000,0320.7920,N,07629.5788,W,1,11,0.7,986.7,M,8.9,M,,0000*7A
$GPGSA,A,3,02,29,15,21,24,25,14,13,12,05,18,,1.4,0.7,1.2*34
$GPRMC,163131.000,A,0320.7920,N,07629.5788,W,0.05,116.89,180115,,,A*70
$GPGGA,163132.000,0320.7920,N,07629.5788,W,1,11,0.7,986.7,M,8.9,M,,0000*79
$GPGSA,A,3,02,29,15,21,24,25,14,13,12,05,18,,1.4,0.7,1.2*34
$GPRMC,163132.000,A,0320.7920,N,07629.5788,W,0.05,123.52,180115,,,A*73
$GPGGA,163133.000,0320.7920,N,07629.5788,W,1,11,0.7,986.7,M,8.9,M,,0000*78
$GPGSA,A,3,02,29,15,21,24,25,14,13,12,05,18,,1.4,0.7,1.2*34
$GPRMC,163133.000,A,0320.7920,N,07629.5788,W,0.05,119.61,180115,,,A*7B
$GPGGA,163134.000,0320.7920,N,07629.5788,W,1,11,0.7,986.6,M,8.9,M,,0000*7E
$GPGSA,A,3,02,29,15,21,24,25,14,13,12,05,18,,1.4,0.7,1.2*34
$GPGSV,3,1,11,24,60,122,46,29,55,231,44,15,39,007,45,21,26,335,39*73
$GPGSV,3,2,11,02,17,129,46,18,15,316,35,14,15,232,32,12,15,160,36*7D
$GPGSV,3,3,11,25,15,197,39,13,07,029,42,05,07,066,46*47
$GPRMC,163134.000,A,0320.7920,N,07629.5788,W,0.05,115.76,180115,,,A*76
$GPGGA,163135.000,0320.7920,N,07629.5788,W,1,11,0.7,986.6,M,8.9,M,,0000*7F
$GPGSA,A,3,02,29,15,21,24,25,14,13,12,05,18,,1.4,0.7,1.2*34
$GPRMC,163135.000,A,0320.7920,N,07629.5788,W,0.05,123.59,180115,,,A*7F
$GPGGA,163136.000,0320.7920,N,07629.5788,W,1,11,0.7,986.6,M,8.9,M,,0000*7C
$GPGSA,A,3,02,29,15,21,24,25,14,13,12,05,18,,1.4,0.7,1.2*34
$GPRMC,163136.000,A,0320.7920,N,07629.5788,W,0.05,118.01,180115,,,A*79
$GPGGA,163137.000,0320.7920,N,07629.5788,W,1,11,0.7,986.6,M,8.9,M,,0000*7D
$GPGSA,A,3,02,29,15,21,24,25,14,13,12,05,18,,1.4,0.7,1.2*34
$GPRMC,163137.000,A,0320.7920,N,07629.5788,W,0.06,115.91,180115,,,A*7F
$GPGGA,163138.000,0320.7920,N,07629.5788,W,1,11,0.7,986.6,M,8.9,M,,0000*72
$GPGSA,A,3,02,29,15,21,24,25,14,13,12,05,18,,1.4,0.7,1.2*34
$GPRMC,163138.000,A,0320.7920,N,07629.5788,W,0.05,117.44,180115,,,A*79
$GPGGA,163139.000,0320.7920,N,07629.5788,W,1,11,0.7,986.6,M,8.9,M,,0000*73
$GPGSA,A,3,02,29,15,21,24,25,14,13,12,05,18,,1.4,0.7,1.2*34
$GPGSV,3,1,11,24,60,121,46,29,54,231,44,15,39,007,45,21,26,335,39*71
$GPGSV,3,2,11,02,17,129,46,18,15,316,35,14,15,232,32,12,15,159,36*77
$GPGSV,3,3,11,25,15,197,39,13,07,029,42,05,07,066,46*47
$GPRMC,163139.000,A,0320.7920,N,07629.5788,W,0.05,120.21,180115,,,A*7F
$GPGGA,163140.000,0320.7920,N,07629.5788,W,1,11,0.7,986.6,M,8.9,M,,0000*7D
$GPGSA,A,3,02,29,15,21,24,25,14,13,12,05,18,,1.4,0.7,1.2*34
$GPRMC,163140.000,A,0320.7920,N,07629.5788,W,0.04,117.60,180115,,,A*71
$GPGGA,163141.000,0320.7920,N,07629.5788,W,1,11,0.7,986.6,M,8.9,M,,0000*7C
$GPGSA,A,3,02,29,15,21,24,25,14,13,12,05,18,,1.4,0.7,1.2*34
$GPRMC,163141.000,A,0320.7920,N,07629.5788,W,0.06,116.43,180115,,,A*72
$GPGGA,163142.000,0320.7920,N,07629.5788,W,1,11,0.7,986.6,M,8.9,M,,0000*7F
$GPGSA,A,3,02,29,15,21,24,25,14,13,12,05,18,,1.4,0.7,1.2*34
$GPRMC,163142.000,A,0320.7920,N,07629.5788,W,0.05,109.65,180115,,,A*78
$GPGGA,163143.000,0320.7920,N,07629.5788,W,1,11,0.7,986.6,M,8.9,M,,0000*7E
$GPGSA,A,3,02,29,15,21,24,25,14,13,12,05,18,,1.4,0.7,1.2*34
$GPRMC,163143.000,A,0320.7920,N,07629.5788,W,0.05,122.53,180115,,,A*75
$GPGGA,163144.000,0320.7920,N,07629.5788,W,1,11,0.7,986.7,M,8.9,M,,0000*78
$GPGSA,A,3,02,29,15,21,24,25,14,13,12,05,18,,1.4,0.7,1.2*34
$GPGSV,3,1,11,24,60,121,47,29,54,231,45,15,39,007,45,21,26,335,39*71
$GPGSV,3,2,11,02,17,129,46,18,15,316,29,14,15,232,32,12,15,159,35*79
$GPGSV,3,3,11,25,15,197,39,13,07,029,42,05,07,066,46*47
$GPRMC,163144.000,A,0320.7920,N,07629.5788,W,0.06,120.13,180115,,,A*77
$GPGGA,163145.000,0320.7920,N,07629.5788,W,1,11,0.7,986.7,M,8.9,M,,0000*79
$GPGSA,A,3,02,29,15,21,24,25,14,13,12,05,18,,1.4,0.7,1.2*34
$GPRMC,163145.000,A,0320.7920,N,07629.5788,W,0.06,116.83,180115,,,A*7A
$GPGGA,163146.000,0320.7920,N,07629.5788,W,1,11,0.7,986.7,M,8.9,M,,0000*7A
$GPGSA,A,3,02,29,15,21,24,25,14,13,12,05,18,,1.4,0.7,1.2*34
$GPRMC,163146.000,A,0320.7920,N,07629.5788,W,0.05,124.25,180115,,,A*77
$GPGGA,163147.000,0320.7920,N,07629.5788,W,1,11,0.7,986.7,M,8.9,M,,0000*7B
$GPGSA,A,3,02,29,15,21,24,25,14,13,12,05,18,,1.4,0.7,1.2*34
$GPRMC,163147.000,A,0320.7920,N,07629.5788,W,0.06,124.94,180115,,,A*7F
$GPGGA,163148.000,0320.7920,N,07629.5788,W,1,11,0.7,986.7,M,8.9,M,,0000*74
$GPGSA,A,3,02,29,15,21,24,25,14,13,12,05,18,,1.4,0.7,1.2*34
$GPRMC,163148.000,A,0320.7920,N,07629.5788,W,0.06,123.03,180115,,,A*79
$GPGGA,163149.000,0320.7920,N,07629.5788,W,1,11,0.7,986.7,M,8.9,M,,0000*75
$GPGSA,A,3,02,29,15,21,24,25,14,13,12,05,18,,1.4,0.7,1.2*34
$GPGSV,3,1,11,24,60,121,47,29,54,231,44,15,39,007,45,21,26,335,39*70
$GPGSV,3,2,11,02,17,129,47,18,16,316,29,14,15,232,31,12,15,159,35*78
$GPGSV,3,3,11,25,15,197,39,13,07,029,42,05,07,066,47*46
$GPRMC,163149.000,A,0320.7920,N,07629.5788,W,0.06,123.35,180115,,,A*7D
$GPGGA,163150.000,0320.7920,N,07629.5788,W,1,11,0.7,986.7,M,8.9,M,,0000*7D
$GPGSA,A,3,02,29,15,21,24,25,14,13,12,05,18,,1.4,0.7,1.2*34
$GPRMC,163150.000,A,0320.7920,N,07629.5788,W,0.06,124.09,180115,,,A*7D
$GPGGA,163151.000,0320.7920,N,07629.5788,W,1,11,0.7,986.8,M,8.9,M,,0000*73
$GPGSA,A,3,02,29,15,21,24,25,14,13,12,05,18,,1.4,0.7,1.2*34
$GPRMC,163151.000,A,0320.7920,N,07629.5788,W,0.05,123.71,180115,,,A*77
$GPGGA,163152.000,0320.7920,N,07629.5788,W,1,11,0.7,986.8,M,8.9,M,,0000*70
$GPGSA,A,3,02,29,15,21,24,25,14,13,12,05,18,,1.4,0.7,1.2*34
$GPRMC,163152.000,A,0320.7920,N,07629.5788,W,0.06,125.44,180115,,,A*77
$GPGGA,163153.000,0320.7920,N,07629.5787,W,1,11,0.7,986.8,M,8.9,M,,0000*7E
$GPGSA,A,3,02,29,15,21,24,25,14,13,12,05,18,,1.4,0.7,1.2*34
$GPRMC,163153.000,A,0320.7920,N,07629.5787,W,0.06,124.53,180115,,,A*7E
$GPGGA,163154.000,0320.7920,N,07629.5787,W,1,11,0.7,986.8,M,8.9,M,,0000*79
$GPGSA,A,3,02,29,15,21,24,25,14,13,12,05,18,,1.4,0.7,1.2*34
$GPGSV,3,1,11,24,60,121,47,29,54,231,44,15,39,007,45,21,26,335,39*70
$GPGSV,3,2,11,02,17,129,46,18,16,316,29,14,15,232,31,12,15,159,35*79
$GPGSV,3,3,11,25,15,197,39,13,07,029,42,05,07,066,47*46
$GPRMC,163154.000,A,0320.7920,N,07629.5787,W,0.06,116.53,180115,,,A*78
$GPGGA,163155.000,0320.7920,N,07629.5787,W,1,11,0.7,986.8,M,8.9,M,,0000*78
$GPGSA,A,3,02,29,15,21,24,25,14,13,12,05,18,,1.4,0.7,1.2*34
$GPRMC,163155.000,A,0320.7920,N,07629.5787,W,0.06,126.02,180115,,,A*7E
$GPGGA,163156.000,0320.7920,N,07629.5787,W,1,11,0.7,986.8,M,8.9,M,,0000*7B
$GPGSA,A,3,02,29,15,21,24,25,14,13,12,05,18,,1.4,0.7,1.2*34
$GPRMC,163156.000,A,0320.7920,N,07629.5787,W,0.06,121.70,180115,,,A*7F
$GPGGA,163157.000,0320.7920,N,07629.5787,W,1,11,0.7,986.8,M,8.9,M,,0000*7A
$GPGSA,A,3,02,29,15,21,24,25,14,13,12,05,18,,1.4,0.7,1.2*34
$GPRMC,163157.000,A,0320.7920,N,07629.5787,W,0.06,121.32,180115,,,A*78
$GPGGA,163158.000,0320.7920,N,07629.5787,W,1,11,0.7,986.8,M,8.9,M,,0000*75
$GPGSA,A,3,02,29,15,21,24,25,14,13,12,05,18,,1.4,0.7,1.2*34
$GPRMC,163158.000,A,0320.7920,N,07629.5787,W,0.06,124.75,180115,,,A*71
$GPGGA,163159.000,0320.7920,N,07629.5787,W,1,11,0.7,986.8,M,8.9,M,,0000*74
$GPGSA,A,3,02,29,15,21,24,25,14,13,12,05,18,,1.4,0.7,1.2*34
$GPGSV,3,1,11,24,60,121,47,29,54,231,44,15,39,007,45,21,26,335,39*70
$GPGSV,3,2,11,02,17,129,47,18,16,316,30,14,15,232,32,12,15,159,34*72
$GPGSV,3,3,11,25,15,197,39,13,07,029,42,05,07,066,47*46
$GPRMC,163159.000,A,0320.7920,N,07629.5787,W,0.06,119.13,180115,,,A*7E
$GPGGA,163200.000,0320.7920,N,07629.5787,W,1,11,0.7,986.8,M,8.9,M,,0000*7B
$GPGSA,A,3,02,29,15,21,24,25,14,13,12,05,18,,1.4,0.7,1.2*34
$GPRMC,163200.000,A,0320.7920,N,07629.5787,W,0.06,125.88,180115,,,A*7C
$GPGGA,163201.000,0320.7920,N,07629.5787,W,1,11,0.7,986.8,M,8.9,M,,0000*7A
$GPGSA,A,3,02,29,15,21,24,25,14,13,12,05,18,,1.4,0.7,1.2*34
$GPRMC,163201.000,A,0320.7920,N,07629.5787,W,0.05,118.63,180115,,,A*75
$GPGGA,163202.000,0320.7920,N,07629.5787,W,1,11,0.7,986.8,M,8.9,M,,0000*79
$GPGSA,A,3,02,29,15,21,24,25,14,13,12,05,18,,1.4,0.7,1.2*34
$GPRMC,163202.000,A,0320.7920,N,07629.5787,W,0.07,125.46,180115,,,A*7D
$GPGGA,163203.000,0320.7920,N,07629.5787,W,1,11,0.7,986.8,M,8.9,M,,0000*78
$GPGSA,A,3,02,29,15,21,24,25,14,13,12,05,18,,1.4,0.7,1.2*34
$GPRMC,163203.000,A,0320.7920,N,07629.5787,W,0.05,114.32,180115,,,A*7F
$GPGGA,163204.000,0320.7920,N,07629.5787,W,1,11,0.7,986.8,M,8.9,M,,0000*7F
$GPGSA,A,3,02,29,15,21,24,25,14,13,12,05,18,,1.4,0.7,1.2*34
$GPGSV,3,1,11,24,60,121,47,29,54,231,44,15,39,007,45,21,26,335,39*70
$GPGSV,3,2,11,02,17,129,47,18,16,316,29,14,15,232,32,12,15,159,34*7A
$GPGSV,3,3,11,25,15,197,39,13,07,029,42,05,07,066,48*49
$GPRMC,163204.000,A,0320.7920,N,07629.5787,W,0.06,125.11,180115,,,A*78
$GPGGA,163205.000,0320.7920,N,07629.5787,W,1,11,0.7,986.8,M,8.9,M,,0000*7E
$GPGSA,A,3,02,29,15,21,24,25,14,13,12,05,18,,1.4,0.7,1.2*34
$GPRMC,163205.000,A,0320.7920,N,07629.5787,W,0.06,125.56,180115,,,A*7A
$GPGGA,163206.000,0320.7920,N,07629.5787,W,1,11,0.7,986.8,M,8.9,M,,0000*7D
$GPGSA,A,3,02,29,15,21,24,25,14,13,12,05,18,,1.4,0.7,1.2*34
$GPRMC,163206.000,A,0320.7920,N,07629.5787,W,0.05,117.88,180115,,,A*78
$GPGGA,163207.000,0320.7920,N,07629.5787,W,1,11,0.7,986.8,M,8.9,M,,0000*7C
$GPGSA,A,3,02,29,15,21,24,25,14,13,12,05,18,,1.4,0.7,1.2*34
$GPRMC,163207.000,A,0320.7920,N,07629.5787,W,0.06,121.18,180115,,,A*76
$GPGGA,163208.000,0320.7920,N,07629.5787,W,1,11,0.7,986.8,M,8.9,M,,0000*73
$GPGSA,A,3,02,29,15,21,24,25,14,13,12,05,18,,1.4,0.7,1.2*34
$GPRMC,163208.000,A,0320.7920,N,07629.5787,W,0.06,111.86,180115,,,A*7D
$GPGGA,163209.000,0320.7920,N,07629.5787,W,1,11,0.7,986.8,M,8.9,M,,0000*72
$GPGSA,A,3,02,29,15,21,24,25,14,13,12,05,18,,1.4,0.7,1.2*34
$GPGSV,3,1,11,24,60,121,47,29,54,230,44,15,39,007,45,21,27,335,39*70
$GPGSV,3,2,11,02,17,129,47,18,16,316,30,14,15,232,32,12,15,159,35*73
$GPGSV,3,3,11,25,15,197,39,05,07,067,47,13,07,030,42*4F
$GPRMC,163209.000,A,0320.7920,N,07629.5787,W,0.05,122.83,180115,,,A*7A
$GPGGA,163210.000,0320.7920,N,07629.5787,W,1,11,0.7,986.8,M,8.9,M,,0000*7A
$GPGSA,A,3,02,29,15,21,24,25,14,13,12,05,18,,1.4,0.7,1.2*34
$GPRMC,163210.000,A,0320.7920,N,07629.5787,W,0.06,116.81,180115,,,A*74
$GPGGA,163211.000,0320.7920,N,07629.5787,W,1,11,0.7,986.8,M,8.9,M,,0000*7B
$GPGSA,A,3,02,29,15,21,24,25,14,13,12,05,18,,1.4,0.7,1.2*34
$GPRMC,163211.000,A,0320.7920,N,07629.5787,W,0.06,125.86,180115,,,A*72
$GPGGA,163212.000,0320.7920,N,07629.5787,W,1,11,0.7,986.8,M,8.9,M,,0000*78
$GPGSA,A,3,02,29,15,21,24,25,14,13,12,05,18,,1.4,0.7,1.2*34
$GPRMC,163212.000,A,0320.7920,N,07629.5787,W,0.06,117.46,180115,,,A*7C
$GPGGA,163213.000,0320.7920,N,07629.5787,W,1,11,0.7,986.8,M,8.9,M,,0000*79
$GPGSA,A,3,02,29,15,21,24,25,14,13,12,05,18,,1.4,0.7,1.2*34
$GPRMC,163213.000,A,0320.7920,N,07629.5787,W,0.05,119.43,180115,,,A*75
$GPGGA,163214.000,0320.7920,N,07629.5787,W,1,11,0.7,986.8,M,8.9,M,,0000*7E
$GPGSA,A,3,02,29,15,21,24,25,14,13,12,05,18,,1.4,0.7,1.2*34
$GPGSV,3,1,11,24,60,121,47,29,54,230,44,15,39,007,45,21,27,335,39*70
$GPGSV,3,2,11,02,17,129,47,18,16,316,34,14,15,232,32,12,15,159,35*77
$GPGSV,3,3,11,25,15,197,38,05,07,067,47,13,07,030,42*4E
$GPRMC,163214.000,A,0320.7920,N,07629.5787,W,0.06,120.39,180115,,,A*76
$GPGGA,163215.000,0320.7920,N,07629.5787,W,1,11,0.7,986.8,M,8.9,M,,0000*7F
$GPGSA,A,3,02,29,15,21,24,25,14,13,12,05,18,,1.4,0.7,1.2*34
$GPRMC,163215.000,A,0320.7920,N,07629.5787,W,0.06,128.56,180115,,,A*76
$GPGGA,163216.000,0320.7920,N,07629.5786,W,1,11,0.7,986.8,M,8.9,M,,0000*7D
$GPGSA,A,3,02,29,15,21,24,25,14,13,12,05,18,,1.4,0.7,1.2*34
$GPRMC,163216.000,A,0320.7920,N,07629.5786,W,0.06,125.83,180115,,,A*71
$GPGGA,163217.000,0320.7920,N,07629.5786,W,1,11,0.7,986.8,M,8.9,M,,0000*7C
$GPGSA,A,3,02,29,15,21,24,25,14,13,12,05,18,,1.4,0.7,1.2*34
$GPRMC,163217.000,A,0320.7920,N,07629.5786,W,0.06,132.82,180115,,,A*77
$GPGGA,163218.000,0320.7920,N,07629.5786,W,1,11,0.7,986.8,M,8.9,M,,0000*73
$GPGSA,A,3,02,29,15,21,24,25,14,13,12,05,18,,1.4,0.7,1.2*34
$GPRMC,163218.000,A,0320.7920,N,07629.5786,W,0.06,129.00,180115,,,A*78
$GPGGA,163219.000,0320.7920,N,07629.5786,W,1,11,0.7,986.8,M,8.9,M,,0000*72
$GPGSA,A,3,02,29,15,21,24,25,14,13,12,05,18,,1.4,0.7,1.2*34
$GPGSV,3,1,11,24,60,121,47,29,54,230,44,15,39,007,45,21,27,335,39*70
$GPGSV,3,2,11,02,17,129,47,18,16,316,34,14,15,232,32,12,15,159,35*77
$GPGSV,3,3,11,25,15,197,38,05,07,067,47,13,07,030,42*4E
$GPRMC,163219.000,A,0320.7920,N,07629.5786,W,0.06,134.14,180115,,,A*70
$GPGGA,163220.000,0320.7920,N,07629.5786,W,1,11,0.7,986.8,M,8.9,M,,0000*78
$GPGSA,A,3,02,29,15,21,24,25,14,13,12,05,18,,1.4,0.7,1.2*34
$GPRMC,163220.000,A,0320.7920,N,07629.5786,W,0.05,130.70,180115,,,A*7F
$GPGGA,163221.000,0320.7920,N,07629.5786,W,1,11,0.7,986.8,M,8.9,M,,0000*79
$GPGSA,A,3,02,29,15,21,24,25,14,13,12,05,18,,1.4,0.7,1.2*34
$GPRMC,163221.000,A,0320.7920,N,07629.5786,W,0.05,133.68,180115,,,A*74
$GPGGA,163222.000,0320.7920,N,07629.5786,W,1,11,0.7,986.8,M,8.9,M,,0000*7A
$GPGSA,A,3,02,29,15,21,24,25,14,13,12,05,18,,1.4,0.7,1.2*34
$GPRMC,163222.000,A,0320.7920,N,07629.5786,W,0.05,136.27,180115,,,A*79
$GPGGA,163223.000,0320.7920,N,07629.5786,W,1,11,0.7,986.8,M,8.9,M,,0000*7B
$GPGSA,A,3,02,29,15,21,24,25,14,13,12,05,18,,1.4,0.7,1.2*34
$GPRMC,163223.000,A,0320.7920,N,07629.5786,W,0.05,129.51,180115,,,A*77
$GPGGA,163224.000,0320.7920,N,07629.5786,W,1,11,0.7,986.8,M,8.9,M,,0000*7C
$GPGSA,A,3,02,29,15,21,24,25,14,13,12,05,18,,1.4,0.7,1.2*34
$GPGSV,3,1,11,24,60,121,46,29,54,230,44,15,39,007,44,21,27,335,39*70
$GPGSV,3,2,11,02,17,129,47,18,16,316,34,14,15,232,32,12,15,159,36*74
$GPGSV,3,3,11,25,15,197,38,05,07,067,48,13,07,030,42*41
$GPRMC,163224.000,A,0320.7920,N,07629.5786,W,0.05,142.31,180115,,,A*7B
$GPGGA,163225.000,0320.7920,N,07629.5786,W,1,11,0.7,986.8,M,8.9,M,,0000*7D
